bank,branch,service,street,city,state,zip,latitude,longitude
Arvest Bank,102/J Street,Limited Service Facility Office,1404 Southeast 'j' Street,Bentonville,AR,72712,36.35626828,-94.19701657
Arvest Bank,3rd & Walnut,Full Service Brick and Mortar Office,205 East Walnut,Paris,AR,72855,35.292429,-93.727692
Arvest Bank,401 North Walnut,Full Service Brick and Mortar Office,401 North Walnut,Harrison,AR,72601,36.23321086,-93.10587377
Arvest Bank,4434 Camp Robinson Road,Full Service Brick and Mortar Office,4724 Camp Robinson Road,North Little Rock,AR,72118,34.799193,-92.2681035
Arvest Bank,500 Broadway Place,Full Service Brick and Mortar Office,500 Broadway Plaza,Little Rock,AR,72201,34.74442477,-92.27597222
Arvest Bank,74th Street,Full Service Brick and Mortar Office,3421 S. 74th Street,Fort Smith,AR,72903,35.348004,-94.350735
Arvest Bank,Arcade,Full Service Brick and Mortar Office,11331 Arcade,Little Rock,AR,72212,34.76994252,-92.40033047
Arvest Bank,Arvest Bank,Full Service Brick and Mortar Office,75 North East Street,Fayetteville,AR,72701,36.06330503,-94.15969928
Arvest Bank,Ashdown Main,Full Service Brick and Mortar Office,110 West Main Street,Ashdown,AR,71822,33.6737449,-94.13239844
Arvest Bank,Bella Vista Town Center,Full Service Brick and Mortar Office,403 Town Center,Bella Vista,AR,72714,36.475956,-94.245939
Arvest Bank,Bentonville Square,Full Service Brick and Mortar Office,201 N.E. A Street,Bentonville,AR,72712,36.373239,-94.20809753
Arvest Bank,Bentonville Supercenter,Full Service Retail Office,406 S. Walton Boulevard,Bentonville,AR,72712,36.36801,-94.224915
Arvest Bank,Berryville,Full Service Brick and Mortar Office,401 West Trimble,Berryville,AR,72616,36.368721,-93.578373
Arvest Bank,Browns Lane,Full Service Brick and Mortar Office,2009 Browns Lane,Jonesboro,AR,72403,35.82080264,-90.68685116
Arvest Bank,Bryant,Full Service Brick and Mortar Office,3217 North Reynolds Road,Bryant,AR,72022,34.623756,-92.4999255
Arvest Bank,Bull Shoals,Full Service Brick and Mortar Office,1517 Central Boulevard,Bull Shoals,AR,72619,36.38243322,-92.59087466
Arvest Bank,Cabot,Full Service Brick and Mortar Office,510 West Main Street,Cabot,AR,72023,34.97574571,-92.02047715
Arvest Bank,Cantrell Road,Full Service Brick and Mortar Office,13800 Cantrell Road,Little Rock,AR,72223,34.802172,-92.426121
Arvest Bank,Centerton,Full Service Brick and Mortar Office,770 West Centerton Blvd,Centerton,AR,72719,36.359019,-94.293576
Arvest Bank,Chenal,Full Service Brick and Mortar Office,16107 Chenal Parkway,Little Rock,AR,72223,34.75817443,-92.44929211
Arvest Bank,Cloverleaf,Full Service Brick and Mortar Office,3015 Alma Hwy,Van Buren,AR,72956,35.44479,-94.325148
Arvest Bank,College Avenue,Full Service Brick and Mortar Office,2850 College Avenue,Conway,AR,72034,35.08513327,-92.47102306
Arvest Bank,Conway Oak Street,Full Service Brick and Mortar Office,621 Oak Street,Conway,AR,72032,35.091468,-92.43414
Arvest Bank,Conway Towne Centre,Full Service Brick and Mortar Office,2590 Donaghey,Conway,AR,72032,35.11178294,-92.45065082
Arvest Bank,Cordoba - Hot Springs Village,Full Service Brick and Mortar Office,111 Cordoba Center,Hot Springs Village,AR,71909,34.65492463,-93.05549759
Arvest Bank,Crossover,Full Service Brick and Mortar Office,2761 East Mission Boulevard,Fayetteville,AR,72703,36.086688,-94.1221665
Arvest Bank,Crystal Hill,Full Service Brick and Mortar Office,13301 Crystal Hill Road,Maumelle,AR,72113,34.83040464,-92.39179294
Arvest Bank,Dequeen Main,Full Service Brick and Mortar Office,504 Collin Raye Drive,De Queen,AR,71832,34.04599309,-94.34305506
Arvest Bank,Dierks,Full Service Brick and Mortar Office,Main And Third Streets,Dierks,AR,71833,34.11927,-94.0169205
Arvest Bank,Dixieland,Full Service Brick and Mortar Office,1801 West Walnut Street,Rogers,AR,72756,36.334476,-94.1441355
Arvest Bank,East Millsap,Full Service Brick and Mortar Office,"516 East Millsap Road, Suite 203",Fayetteville,AR,72701,36.114822,-94.1500845
Arvest Bank,Elkins,Full Service Brick and Mortar Office,2045 North Center Street,Fayetteville,AR,72701,36.02903018,-94.02533601
Arvest Bank,Elms Spring,Full Service Brick and Mortar Office,4860 Elm Springs Road,Springdale,AR,72762,36.193454,-94.18360855
Arvest Bank,Emma,Full Service Brick and Mortar Office,415 West Emma Avenue,Springdale,AR,72764,36.18510151,-94.135041
Arvest Bank,Eureka Springs,Full Service Brick and Mortar Office,151 East Van Buren,Eureka Springs,AR,72632,36.39125946,-93.73748332
Arvest Bank,Farmington,Full Service Brick and Mortar Office,110 East Main Street,Farmington,AR,72730,36.043173,-94.235499
Arvest Bank,Financial Center,Full Service Brick and Mortar Office,405 South Walton Boulevard,Bentonville,AR,72712,36.36896297,-94.22168839
Arvest Bank,Fort Smith Downtown,Full Service Brick and Mortar Office,816 Garrison Ave,Fort Smith,AR,72901,35.385453,-94.422969
Arvest Bank,Gentry,Full Service Brick and Mortar Office,320 East Main Street,Gentry,AR,72734,36.267545,-94.48186701
Arvest Bank,Glenwood,Full Service Brick and Mortar Office,214 North First Street,Glenwood,AR,71943,34.327008,-93.551742
Arvest Bank,Gravette,Full Service Brick and Mortar Office,506 First Avenue Se,Gravette,AR,72736,36.417726,-94.452597
Arvest Bank,Greenwood,Full Service Brick and Mortar Office,224 Coker Street,Greenwood,AR,72936,35.20860406,-94.25959207
Arvest Bank,Heights,Limited Service Facility Office,1820 N Grant Street,Little Rock,AR,72207,34.76858412,-92.33950975
Arvest Bank,Hickory Street,Full Service Brick and Mortar Office,1608 Highway 71 North,Mena,AR,71953,34.58635052,-94.21395003
Arvest Bank,Highlands,Full Service Brick and Mortar Office,1802 Forest Hills Boulevard,Bella Vista,AR,72715,36.462312,-94.3025445
Arvest Bank,Highway 14,Full Service Brick and Mortar Office,167 Highway 14,Lead Hill,AR,72644,36.41998354,-92.9174085
Arvest Bank,Highway 412 East,Full Service Brick and Mortar Office,2730 Highway 412 East,Siloam Springs,AR,72761,36.180549,-94.5138195
Arvest Bank,Highway 62 East,Full Service Brick and Mortar Office,2619 Highway 62 East,Mountain Home,AR,72653,36.357516,-92.342115
Arvest Bank,Highway 62 West,Full Service Brick and Mortar Office,1627 Highway 62 West,Mountain Home,AR,72653,36.322704,-92.3921145
Arvest Bank,Highway 62-65 North,Full Service Brick and Mortar Office,1402 Highway 62-65 North,Harrison,AR,72601,36.263277,-93.135537
Arvest Bank,Highway 64 West,Full Service Brick and Mortar Office,408 Highway 64 West,Alma,AR,72921,35.482014,-94.230738
Arvest Bank,Highway 71 North,Full Service Brick and Mortar Office,612 N Walton,Bentonville,AR,72712,36.37951591,-94.22122314
Arvest Bank,Hot Springs - Southwest,Full Service Brick and Mortar Office,1500 Albert Pike,Hot Springs National Park,AR,71913,34.493229,-93.0870045
Arvest Bank,Hot Springs 70 West,Full Service Brick and Mortar Office,1710 Airport Road,Hot Springs National Park,AR,71913,34.46546004,-93.1439963
Arvest Bank,Hot Springs Central,Full Service Brick and Mortar Office,4570 Central Avenue,Hot Springs National Park,AR,71913,34.44885396,-93.08467389
Arvest Bank,Hot Springs Main,Full Service Brick and Mortar Office,135 Section Line Road,Hot Springs National Park,AR,71913,34.46533874,-93.06399343
Arvest Bank,Hot Springs Ouachita,Full Service Brick and Mortar Office,400 Ouachita Avenue,Hot Springs National Park,AR,71901,34.50592424,-93.05792724
Arvest Bank,Huntsville,Full Service Brick and Mortar Office,104 South Hughes,Huntsville,AR,72740,36.08714119,-93.73694929
Arvest Bank,Huntsville,Full Service Brick and Mortar Office,164 Gary Hatfield Way,Huntsville,AR,72740,36.1138485,-93.71668531
Arvest Bank,Jonesboro Hilltop,Full Service Brick and Mortar Office,5205 E Johnson,Jonesboro,AR,72401,35.863857,-90.629712
Arvest Bank,Joyce,Full Service Brick and Mortar Office,1627 Joyce Street,Fayetteville,AR,72703,36.119637,-94.136931
Arvest Bank,Kelley Highway,Full Service Brick and Mortar Office,4800 Kelley Highway,Fort Smith,AR,72904,35.40368591,-94.37778227
Arvest Bank,Kiehl,Full Service Brick and Mortar Office,4001 Kiehl Avenue,Sherwood,AR,72120,34.832673,-92.188395
Arvest Bank,Lakeside,Full Service Brick and Mortar Office,2320 Malvern Ave,Hot Springs National Park,AR,71901,34.47310275,-93.02237397
Arvest Bank,Lincoln,Full Service Brick and Mortar Office,317 East Pridemore Drive,Lincoln,AR,72744,35.94795415,-94.41935354
Arvest Bank,Loan Production,Limited Service Loan Production Office,"5100 South Thompson, Suite 203",Springdale,AR,72764,36.1363424,-94.1448715
Arvest Bank,Loan Production Office,Limited Service Loan Production Office,135 Section Line Road,Hot Springs National Park,AR,71913,34.46533874,-93.06399343
Arvest Bank,Lonoke,Full Service Brick and Mortar Office,1360 North Center Street,Lonoke,AR,72086,34.79641114,-91.89359302
Arvest Bank,Lowell,Full Service Brick and Mortar Office,103 South Bloomington,Lowell,AR,72745,36.253656,-94.1362065
Arvest Bank,Mabelvale,Full Service Brick and Mortar Office,10206 Mabelvale Plaza,Little Rock,AR,72209,34.66893581,-92.38023468
Arvest Bank,Manila,Full Service Brick and Mortar Office,709 W. Fleeman,Manila,AR,72442,35.87277544,-90.17363237
Arvest Bank,Mccain Boulevard,Full Service Brick and Mortar Office,4004 Mccain Boulevard,North Little Rock,AR,72116,34.79035933,-92.22743438
Arvest Bank,Military Road,Full Service Brick and Mortar Office,925 Military Road,Benton,AR,72015,34.571925,-92.5816005
Arvest Bank,Monette,Full Service Brick and Mortar Office,301 East Drew Avenue,Monette,AR,72447,35.89030767,-90.33906894
Arvest Bank,Morrilton,Full Service Brick and Mortar Office,1500 East Harding Street,Morrilton,AR,72110,35.1641867,-92.72778739
Arvest Bank,Mountain Home Facility,Full Service Brick and Mortar Office,819 Wallace Knob Road,Mountain Home,AR,72653,36.34940859,-92.37523154
Arvest Bank,Mt Ida Main,Full Service Brick and Mortar Office,221 South George Street,Mount Ida,AR,71957,34.55745622,-93.63417528
Arvest Bank,N Mall Supercenter,Full Service Retail Office,3919 North Mall Avenue,Fayetteville,AR,72703,36.12258,-94.1524875
Arvest Bank,Nashville,Full Service Brick and Mortar Office,420 South Main Street,Nashville,AR,71852,33.9396451,-93.84721523
Arvest Bank,North College Avenue,Full Service Brick and Mortar Office,2389 North College Avenue,Fayetteville,AR,72703,36.094716,-94.153482
Arvest Bank,Northside,Full Service Brick and Mortar Office,700 North Main,Harrison,AR,72601,36.23675014,-93.10717491
Arvest Bank,Park Hill,Full Service Brick and Mortar Office,3502 Jfk Boulevard,North Little Rock,AR,72116,34.787223,-92.259999
Arvest Bank,Parklane,Full Service Brick and Mortar Office,3200 Rogers Avenue,Fort Smith,AR,72903,35.373591,-94.397427
Arvest Bank,Pea Ridge,Full Service Brick and Mortar Office,132 North Curtis,Pea Ridge,AR,72751,36.442476,-94.1157495
Arvest Bank,Prairie Grove,Full Service Brick and Mortar Office,102 East Buchanan Street,Prairie Grove,AR,72753,35.97568552,-94.31703922
Arvest Bank,Rena Road,Full Service Brick and Mortar Office,1930 Fayetteville,Van Buren,AR,72956,35.465859,-94.355793
Arvest Bank,Rogers Downtown,Full Service Brick and Mortar Office,201 West Walnut Street,Rogers,AR,72756,36.333342,-94.117599
Arvest Bank,Rogers Supercenter,Full Service Retail Office,"2110 West Walnut, Suite 3",Rogers,AR,72756,36.331254,-94.148964
Arvest Bank,Russellville,Full Service Brick and Mortar Office,819 South Arkansas Avenue,Russellville,AR,72801,35.27048739,-93.13402269
Arvest Bank,Russellville,Full Service Brick and Mortar Office,121 North El Mira Avenue,Russellville,AR,72802,35.27937722,-93.10268901
Arvest Bank,Russellville Main,Full Service Brick and Mortar Office,209 West Main,Russellville,AR,72801,35.27807523,-93.134349
Arvest Bank,Russellville Motor Bank,Limited Service Facility Office,121 South Boulder Avenue,Russellville,AR,72801,35.27794252,-93.13435927
Arvest Bank,Rye Hill,Full Service Brick and Mortar Office,11808 Highway 71 South,Fort Smith,AR,72916,35.272107,-94.372011
Arvest Bank,Shackleford Road,Full Service Retail Office,2700 South Shackleford Road,Little Rock,AR,72205,34.728327,-92.397717
Arvest Bank,Sherwood,Full Service Brick and Mortar Office,8415 Highway 107,Sherwood,AR,72120,34.831818,-92.2321575
Arvest Bank,Siloam Springs Downtown,Full Service Brick and Mortar Office,109 East University,Siloam Springs,AR,72761,36.18599493,-94.54114269
Arvest Bank,Siloam Springs Main,Full Service Brick and Mortar Office,1645 Highway 412 West,Siloam Springs,AR,72761,36.176985,-94.5586125
Arvest Bank,South James,Full Service Brick and Mortar Office,1810 North 1st Street,Jacksonville,AR,72076,34.88326232,-92.10826582
Arvest Bank,South Rogers Street,Full Service Brick and Mortar Office,1107 South Rogers Street,Clarksville,AR,72830,35.46017192,-93.45982882
Arvest Bank,South Unversity Avenue,Full Service Brick and Mortar Office,1720 South Unverisity Avenue,Little Rock,AR,72201,34.73554629,-92.34183072
Arvest Bank,Southeast 14th Street,Full Service Brick and Mortar Office,3514 Southeast 14th Street,Bentonville,AR,72712,36.35619775,-94.17087333
Arvest Bank,Southwest Drive,Full Service Brick and Mortar Office,3101 Southwest Drive,Jonesboro,AR,72404,35.80666116,-90.7220329
Arvest Bank,Springdale East,Full Service Brick and Mortar Office,3263 East Robinson Avenue B-1,Springdale,AR,72764,36.16637965,-94.09483455
Arvest Bank,Springdale South,Full Service Brick and Mortar Office,2012 South Pleasant,Springdale,AR,72764,36.16569853,-94.14369253
Arvest Bank,Springdale Supercenter,Full Service Retail Office,2004 South Pleasant,Springdale,AR,72764,36.16618355,-94.14368206
Arvest Bank,Springdale West,Full Service Brick and Mortar Office,3950 West Sunset Avenue,Springdale,AR,72764,36.17518352,-94.17430847
Arvest Bank,Sugar Creek Center,Full Service Brick and Mortar Office,70 Sugar Creek Center,Bella Vista,AR,72714,36.44066231,-94.23699784
Arvest Bank,"Superior Bank, Fsb",Full Service Brick and Mortar Office,5000 Rogers Avenue,Fort Smith,AR,72903,35.364159,-94.37625
Arvest Bank,Teller's Window,Full Service Brick and Mortar Office,802 East Main,Flippin,AR,72634,36.26614569,-92.58046484
Arvest Bank,The Bank Of Yellville,Full Service Brick and Mortar Office,105 North Panther,Yellville,AR,72687,36.22545585,-92.68481154
Arvest Bank,Thompson,Full Service Brick and Mortar Office,3858 South Thompson,Springdale,AR,72764,36.15052486,-94.14394552
Arvest Bank,Tontitown,Full Service Brick and Mortar Office,918 East Henri De Tonti Boulevard,Tontitown,AR,72770,36.17604798,-94.22019348
Arvest Bank,Uams Markham,Full Service Brick and Mortar Office,4400 West Markham St.,Little Rock,AR,72205,34.7516485,-92.32218094
Arvest Bank,University,Full Service Brick and Mortar Office,1113 North Garland Avenue,Fayetteville,AR,72703,36.077931,-94.1758695
Arvest Bank,Village On The Creeks,Full Service Brick and Mortar Office,5201 Village Parkway,Rogers,AR,72758,36.31751712,-94.18781897
Arvest Bank,Waldron Main,Full Service Brick and Mortar Office,181 Highway 71 Byp S,Waldron,AR,72958,34.90096539,-94.10737752
Arvest Bank,Wedington,Full Service Brick and Mortar Office,1170 North Salem Road,Fayetteville,AR,72704,36.07908629,-94.20811923
Arvest Bank,West 6th Street,Full Service Brick and Mortar Office,"3045 Martin Luther King, Jr. Blvd.",Fayetteville,AR,72704,36.05147437,-94.20372055
Arvest Bank,West Fork,Full Service Brick and Mortar Office,15 North Centennial Avenue,West Fork,AR,72774,35.93190433,-94.18004491
Arvest Bank,West Main Place,Full Service Brick and Mortar Office,3005 West Main Place,Russellville,AR,72801,35.28709446,-93.163991
Arvest Bank,West New Hope,Full Service Brick and Mortar Office,701 West New Hope Road,Rogers,AR,72758,36.312147,-94.1244795
Arvest Bank,West Olive Street,Full Service Brick and Mortar Office,4302 West Olive Street,Rogers,AR,72756,36.341649,-94.178475
Arvest Bank,West Pleasant Grove Road,Full Service Brick and Mortar Office,2200 West Pleasant Grove Road,Rogers,AR,72758,36.282753,-94.150845
Arvest Bank,Zero Street,Full Service Brick and Mortar Office,1701 South Zero Street,Fort Smith,AR,72901,35.32804418,-94.41705605
Arvest Bank,Zero Street Supercenter,Full Service Retail Office,2425 South Zero Street,Fort Smith,AR,72901,35.32775796,-94.40622818
Bank OZK,Alma,Full Service Brick and Mortar Office,611 Highway 71 North,Alma,AR,72921,35.49255991,-94.22607148
Bank OZK,Altus,Full Service Brick and Mortar Office,1612 Franklin St,Altus,AR,72821,35.44645049,-93.76225054
Bank OZK,Arkadelphia Main,Full Service Brick and Mortar Office,409 Main Street,Arkadelphia,AR,71923,34.11951247,-93.05184167
Bank OZK,Arkadelphia West Pine,Full Service Brick and Mortar Office,2960 West Pine,Arkadelphia,AR,71923,34.11914454,-93.08682381
Bank OZK,Bank Ozk,Full Service Brick and Mortar Office,17901 Chenal Parkway,Little Rock,AR,72223,34.770006,-92.459871
Bank OZK,Bella Vista Highlands,Full Service Brick and Mortar Office,791 Lancashire Boulevard,Bella Vista,AR,72715,36.46271688,-94.30138927
Bank OZK,Bella Vista Sugar Creek,Full Service Brick and Mortar Office,80 Sugar Creek Center,Bella Vista,AR,72714,36.441387,-94.237731
Bank OZK,Bellefonte,Full Service Brick and Mortar Office,3334 Highway 65 South,Harrison,AR,72601,36.19829908,-93.04376668
Bank OZK,Benton Alcoa,Full Service Brick and Mortar Office,7250 Alcoa Road,Benton,AR,72015,34.60357861,-92.53427291
Bank OZK,Benton Hwy 35,Full Service Brick and Mortar Office,1216 Highway 35,Benton,AR,72015,34.55167382,-92.56633852
Bank OZK,Benton Lpo,Limited Service Loan Production Office,1800 Military Road,Benton,AR,72015,34.582194,-92.5720515
Bank OZK,Benton Military Rd,Full Service Brick and Mortar Office,1700 Military Rd,Benton,AR,72015,34.580115,-92.574432
Bank OZK,Bentonville Hwy 102,Full Service Brick and Mortar Office,405 Sw 14th Street,Bentonville,AR,72712,36.356571,-94.214241
Bank OZK,Bentonville Walton/Dodson,Full Service Brick and Mortar Office,1010 Southeast Walton Boulevard,Bentonville,AR,72712,36.33529509,-94.19838295
Bank OZK,Bryant Highway 5,Full Service Brick and Mortar Office,5910 Highway 5 North,Bryant,AR,72022,34.625367,-92.4982335
Bank OZK,Cabot Main,Full Service Brick and Mortar Office,615 West Main Street,Cabot,AR,72023,34.975395,-92.0209005
Bank OZK,Cabot South,Full Service Brick and Mortar Office,3091 Hwy 367 S,Cabot,AR,72023,34.94845529,-92.05925417
Bank OZK,Cantrell Road,Full Service Brick and Mortar Office,7500 Cantrell Road,Little Rock,AR,72207,34.77144923,-92.35736465
Bank OZK,Capitol,Full Service Brick and Mortar Office,325 West Capitol Avenue,Little Rock,AR,72201,34.744275,-92.2743765
Bank OZK,Chenal Parkway,Full Service Brick and Mortar Office,12615 Chenal Parkway,Little Rock,AR,72211,34.753725,-92.41533
Bank OZK,Chester,Full Service Brick and Mortar Office,109 North Chester,Little Rock,AR,72201,34.749675,-92.2806315
Bank OZK,Clarksville Main,Full Service Brick and Mortar Office,1010 West Main,Clarksville,AR,72830,35.47158135,-93.47940147
Bank OZK,Clarksville Rogers Ave,Full Service Brick and Mortar Office,1144 Rogers Avenue,Clarksville,AR,72830,35.45873692,-93.46129988
Bank OZK,Clinton,Full Service Brick and Mortar Office,1750 Highway 65 South,Clinton,AR,72031,35.56968244,-92.45205277
Bank OZK,Conway East,Full Service Brick and Mortar Office,1104 East Oak Street,Conway,AR,72032,35.091909,-92.4150105
Bank OZK,Conway Main,Full Service Brick and Mortar Office,551 Harkrider St,Conway,AR,72032,35.086995,-92.4373755
Bank OZK,Conway North,Full Service Brick and Mortar Office,1745 Old Morrilton Highway,Conway,AR,72032,35.11152,-92.4461325
Bank OZK,Conway Salem,Full Service Brick and Mortar Office,545 Salem Road,Conway,AR,72034,35.086239,-92.472201
Bank OZK,East Mccain,Full Service Brick and Mortar Office,4420 East Mccain Boulevard,North Little Rock,AR,72117,34.78912696,-92.21532859
Bank OZK,Fayetteville Crossover,Full Service Retail Office,2060 North Crossover Road,Fayetteville,AR,72703,36.08900147,-94.12146823
Bank OZK,Fayetteville Joyce,Full Service Brick and Mortar Office,1549 East Joyce Blvd,Fayetteville,AR,72703,36.119691,-94.13766
Bank OZK,Fayetteville Wedington,Full Service Brick and Mortar Office,3474 West Wedington Drive,Fayetteville,AR,72704,36.07853572,-94.20933315
Bank OZK,Fort Smith Phoenix,Full Service Brick and Mortar Office,8501 Phoenix Avenue,Fort Smith,AR,72903,35.34621539,-94.33819743
Bank OZK,Fort Smith Rogers,Full Service Brick and Mortar Office,5401 Rogers Avenue,Fort Smith,AR,72903,35.363061,-94.372155
Bank OZK,Fort Smith Zero St,Full Service Brick and Mortar Office,2520 South Zero St,Fort Smith,AR,72908,35.327277,-94.4069895
Bank OZK,Harrison Main,Full Service Brick and Mortar Office,315 North Walnut,Harrison,AR,72601,36.23221877,-93.10593631
Bank OZK,Harrison North,Full Service Brick and Mortar Office,725 Highway 62-65 North,Harrison,AR,72601,36.25118424,-93.11900726
Bank OZK,Hope Main,Full Service Brick and Mortar Office,600 South Main,Hope,AR,71801,33.663888,-93.5909415
Bank OZK,Hope North Hervey,Full Service Brick and Mortar Office,1303 North Hervey,Hope,AR,71801,33.67909295,-93.6029874
Bank OZK,Hot Springs - 70 West,Full Service Brick and Mortar Office,"1540 Airport Road, Suite A",Hot Springs National Park,AR,71913,34.46910244,-93.13741523
Bank OZK,Hot Springs Albert Pike,Full Service Brick and Mortar Office,1410 Albert Pike,Hot Springs National Park,AR,71913,34.49280675,-93.08542038
Bank OZK,Hot Springs Central,Full Service Brick and Mortar Office,4044 Central Avenue,Hot Springs National Park,AR,71913,34.45476089,-93.06461255
Bank OZK,Hot Springs Malvern Avenue,Full Service Brick and Mortar Office,1617 Malvern Avenue,Hot Springs National Park,AR,71901,34.49357034,-93.03798678
Bank OZK,Hot Springs Ouachita,Full Service Brick and Mortar Office,333 Ouachita Avenue,Hot Springs National Park,AR,71901,34.50634135,-93.05723377
Bank OZK,Hot Springs Section Line,Full Service Brick and Mortar Office,401 Section Line Road,Hot Springs National Park,AR,71913,34.464276,-93.072096
Bank OZK,Hot Springs Village Hwy 5,Full Service Brick and Mortar Office,24705 State Highway 5,Lonsdale,AR,72087,34.62121644,-92.85389338
Bank OZK,Hot Springs Village Hwy 7,Full Service Brick and Mortar Office,3650 North Highway 7,Hot Springs Village,AR,71909,34.6338598,-93.05942646
Bank OZK,Jasper,Full Service Brick and Mortar Office,100 East Church St,Jasper,AR,72641,36.00776527,-93.18685322
Bank OZK,Levy,Full Service Brick and Mortar Office,3640 Camp Robinson Road,North Little Rock,AR,72118,34.789392,-92.276001
Bank OZK,Little Rock - Heights,Full Service Brick and Mortar Office,1800 North Taylor,Little Rock,AR,72207,34.768449,-92.336337
Bank OZK,Little Rock Loan Production Office,Limited Service Loan Production Office,"1811 Rahling Road, Suite 100",Little Rock,AR,72223,34.77290027,-92.44780944
Bank OZK,Little Rock Lpo,Limited Service Loan Production Office,"Rahling Annex, 1811 Rahling Road, Suite 100",Little Rock,AR,72223,34.77290027,-92.44780944
Bank OZK,Lonoke,Full Service Brick and Mortar Office,303 East Front Street,Lonoke,AR,72086,34.78423724,-91.8979542
Bank OZK,Magnolia,Full Service Brick and Mortar Office,305 North Jackson,Magnolia,AR,71753,33.26958207,-93.23925885
Bank OZK,Malvern,Full Service Brick and Mortar Office,608 East Page,Malvern,AR,72104,34.363665,-92.804481
Bank OZK,Malvern Mlk,Full Service Brick and Mortar Office,1608 Mlk Boulevard,Malvern,AR,72104,34.38260694,-92.82782653
Bank OZK,Markham & Rodney Parham,Full Service Brick and Mortar Office,101 North Rodney Parham Road,Little Rock,AR,72205,34.753518,-92.366982
Bank OZK,Marshall,Full Service Brick and Mortar Office,600 Highway 65 North,Marshall,AR,72650,35.91095378,-92.64547978
Bank OZK,Maumelle,Full Service Brick and Mortar Office,120 Audubon Dr,Maumelle,AR,72113,34.850259,-92.404602
Bank OZK,Mountain Home East,Full Service Brick and Mortar Office,2575 Highway 62 East,Mountain Home,AR,72653,36.35748,-92.342934
Bank OZK,Mountain Home Main,Full Service Brick and Mortar Office,100 Highway 5 North,Mountain Home,AR,72653,36.340299,-92.3862015
Bank OZK,Mulberry,Full Service Brick and Mortar Office,115 Highway 64 West,Mulberry,AR,72947,35.50244562,-94.05080794
Bank OZK,North Hills,Full Service Brick and Mortar Office,4846 North Hills Blvd,North Little Rock,AR,72116,34.79905696,-92.23792932
Bank OZK,Otter Creek,Full Service Brick and Mortar Office,13415 Otter Creek Pkwy,Little Rock,AR,72210,34.65813801,-92.42660572
Bank OZK,Ozark Porter Hillard,Full Service Brick and Mortar Office,601 West Commerical Street,Ozark,AR,72949,35.48723524,-93.83062612
Bank OZK,Ozark Westside,Full Service Brick and Mortar Office,2011 West Commercial Street,Ozark,AR,72949,35.48985759,-93.8475619
Bank OZK,Ozk.Com,Full Service Cyber Office,600 W Commercial Street,Ozark,AR,72949,35.48742851,-93.8313849
Bank OZK,Paris,Full Service Brick and Mortar Office,1405 East Walnut,Paris,AR,72855,35.292285,-93.717378
Bank OZK,Rodney Parham,Full Service Brick and Mortar Office,11102 Rodney Parham,Little Rock,AR,72212,34.77167886,-92.39828592
Bank OZK,Rogers 47th St,Full Service Brick and Mortar Office,800 North 47th Street,Rogers,AR,72756,36.34318615,-94.18013853
Bank OZK,Rogers New Hope,Full Service Brick and Mortar Office,3567 West New Hope Road,Rogers,AR,72758,36.313209,-94.171842
Bank OZK,Rogers Pleasant Grove,Full Service Brick and Mortar Office,2501 West Pleasant Grove Road,Rogers,AR,72758,36.28329371,-94.15037526
Bank OZK,Russellville East Parkway,Full Service Brick and Mortar Office,2305 East Parkway,Russellville,AR,72802,35.282952,-93.1063005
Bank OZK,Russellville Main,Full Service Brick and Mortar Office,405 West Main Street,Russellville,AR,72801,35.278614,-93.137049
Bank OZK,Russellville West,Full Service Brick and Mortar Office,3110 West Main,Russellville,AR,72801,35.288253,-93.1641345
Bank OZK,Sherwood,Full Service Brick and Mortar Office,8718 Highway 107,Sherwood,AR,72120,34.834545,-92.231181
Bank OZK,Siloam Springs,Full Service Brick and Mortar Office,2401 East Main Street,Siloam Springs,AR,72761,36.181566,-94.51692
Bank OZK,Springdale Gutensohn,Full Service Brick and Mortar Office,2773 West Sunset Avenue,Springdale,AR,72762,36.17490049,-94.16104955
Bank OZK,Springdale Jones Road,Full Service Brick and Mortar Office,7154 West Sunset Ave,Springdale,AR,72762,36.17583349,-94.20988008
Bank OZK,Taylor Loop,Full Service Brick and Mortar Office,14825 Cantrell Road,Little Rock,AR,72223,34.80087074,-92.43745984
Bank OZK,Texarkana Arkansas Boulevard,Full Service Brick and Mortar Office,503 Arkansas Boulevard,Texarkana,AR,71854,33.460641,-94.037427
Bank OZK,Van Buren Main St,Full Service Brick and Mortar Office,1412 Main Street,Van Buren,AR,72956,35.436285,-94.3437285
Bank OZK,Van Buren Pointer Tr,Full Service Brick and Mortar Office,515 Pointer Trail East,Van Buren,AR,72956,35.45890209,-94.35503342
Bank OZK,Western Grove,Full Service Brick and Mortar Office,U.S. Highway 65 & State Highway 123,Western Grove,AR,72685,36.093699,-92.9551005
Bank OZK,Yellville,Full Service Brick and Mortar Office,104 West Old Main Street,Yellville,AR,72687,36.22541146,-92.68495116
Centennial Bank,812 North Church,Full Service Brick and Mortar Office,812 North Church,Atkins,AR,72823,35.249832,-92.937078
Centennial Bank,Asu,Limited Service Facility Office,2400 Aggie Road,Jonesboro,AR,72401,35.84238817,-90.67586685
Centennial Bank,Baseline,Full Service Brick and Mortar Office,10315 Interstate 30,Little Rock,AR,72209,34.668882,-92.3822415
Centennial Bank,Batesville,Full Service Brick and Mortar Office,1240 Main Street,Batesville,AR,72501,35.77700403,-91.64188383
Centennial Bank,Batesville Harrison Street,Full Service Brick and Mortar Office,1895 Harrison Street,Batesville,AR,72501,35.76964491,-91.63291972
Centennial Bank,Beebe,Full Service Brick and Mortar Office,707 Dewitt Henry Drive,Beebe,AR,72012,35.08092557,-91.87389062
Centennial Bank,Broadway,Full Service Brick and Mortar Office,718 Broadway,Little Rock,AR,72201,34.742106,-92.2769415
Centennial Bank,Bryant,Full Service Brick and Mortar Office,2224 N. Reynolds Rd.,Bryant,AR,72022,34.61669278,-92.4982915
Centennial Bank,Cabot Downtown,Full Service Brick and Mortar Office,1 City Plaza,Cabot,AR,72023,34.973316,-92.016873
Centennial Bank,Camp Robinson Road,Full Service Brick and Mortar Office,4515 Camp Robinson Road,North Little Rock,AR,72118,34.79601295,-92.27088252
Centennial Bank,Caraway Road,Full Service Brick and Mortar Office,2241 South Caraway Road,Jonesboro,AR,72401,35.817138,-90.678384
Centennial Bank,Centennial Bank,Full Service Brick and Mortar Office,620 Chestnut Street,Conway,AR,72032,35.088525,-92.437884
Centennial Bank,Centennial Trust,Full Service Brick and Mortar Office,"1445 Hogan Lane, Suite 1",Conway,AR,72034,35.09912685,-92.4976878
Centennial Bank,Chenal,Full Service Brick and Mortar Office,520 Bowman,Little Rock,AR,72211,34.74964703,-92.4071523
Centennial Bank,Chestnut Mobile,Limited Service Mobile Office,620 Chestnut Street,Conway,AR,72032,35.088525,-92.437884
Centennial Bank,Clarksville,Full Service Brick and Mortar Office,1000 South Rodgers,Clarksville,AR,72830,35.46074497,-93.45941612
Centennial Bank,Daranelle,Full Service Brick and Mortar Office,600 Union Street,Dardanelle,AR,72834,35.22124933,-93.16273077
Centennial Bank,Downtown,Full Service Brick and Mortar Office,1208 Oak Street,Conway,AR,72032,35.090928,-92.441205
Centennial Bank,Downtown East Washington,Limited Service Facility Office,211 East Washington,Jonesboro,AR,72401,35.83834852,-90.7035975
Centennial Bank,East,Full Service Brick and Mortar Office,1815 East Oak Street,Conway,AR,72032,35.09105451,-92.40218944
Centennial Bank,Fayetteville,Full Service Brick and Mortar Office,3010 W. 6th Street,Fayetteville,AR,72701,36.05169791,-94.20316577
Centennial Bank,Fayetteville Joyce Blvd,Full Service Brick and Mortar Office,1400 East Joyce Blvd,Fayetteville,AR,72703,36.120996,-94.1388345
Centennial Bank,Fort Smith,Limited Service Facility Office,6701 Boston St,Fort Smith,AR,72903,35.35433748,-94.3585605
Centennial Bank,Fort Smith Phoenix,Full Service Brick and Mortar Office,4625 Old Greenwood Road,Fort Smith,AR,72903,35.338869,-94.391199
Centennial Bank,Fort Smith Rogers Ave Main,Full Service Brick and Mortar Office,5801 Rogers Avenue,Fort Smith,AR,72903,35.361189,-94.3679385
Centennial Bank,Greenbrier,Full Service Brick and Mortar Office,#8 Business Park Drive,Greenbrier,AR,72058,35.22408255,-92.38688088
Centennial Bank,Hardy,Full Service Brick and Mortar Office,1927 Hwy 62/412,Hardy,AR,72542,36.2617204,-91.5289155
Centennial Bank,Heber Springs,Full Service Brick and Mortar Office,1631 Highway 25b North,Heber Springs,AR,72543,35.50874373,-92.02926471
Centennial Bank,Heights,Full Service Brick and Mortar Office,4924 Kavanaugh Boulevard,Little Rock,AR,72207,34.76884514,-92.32969554
Centennial Bank,Highway 10,Full Service Brick and Mortar Office,13910 Cantrell Road,Little Rock,AR,72223,34.80198174,-92.42773069
Centennial Bank,Hilltop,Limited Service Facility Office,3505 East Johnson Avenue,Jonesboro,AR,72401,35.85760782,-90.65596422
Centennial Bank,Hwy 321,Full Service Brick and Mortar Office,3111 Bill Foster Memorial Highway,Cabot,AR,72023,34.94588065,-92.06120595
Centennial Bank,Hwy 412,Full Service Brick and Mortar Office,101 Highway 412 East,Siloam Springs,AR,72761,36.172701,-94.541067
Centennial Bank,Hwy 64 Beebe,Full Service Brick and Mortar Office,30 Highway 64 West,Beebe,AR,72012,35.0694,-91.9221075
Centennial Bank,Indirect Lending,Limited Service Loan Production Office,1150 N. Museum Road Suite 102,Conway,AR,72032,35.09420811,-92.41883918
Centennial Bank,John Hardin Drive,Full Service Brick and Mortar Office,1900 John Hardin Drive,Jacksonville,AR,72076,34.88431592,-92.1098858
Centennial Bank,Jonesboro,Full Service Brick and Mortar Office,715 Southwest Drive,Jonesboro,AR,72401,35.81319602,-90.71480498
Centennial Bank,Jonesboro Main Office,Full Service Brick and Mortar Office,2901 East Highland Drive,Jonesboro,AR,72401,35.82108397,-90.67009734
Centennial Bank,Lakewood Village,Full Service Brick and Mortar Office,2716 Lakewood Village Place,North Little Rock,AR,72116,34.795485,-92.2338945
Centennial Bank,Levy,Full Service Brick and Mortar Office,3811 Mcarthur Drive,North Little Rock,AR,72118,34.79193598,-92.28594554
Centennial Bank,Lonoke County Mobile,Limited Service Mobile Office,620 Chestnut Street,Conway,AR,72032,35.088525,-92.437884
Centennial Bank,Main & Municipal,Full Service Brick and Mortar Office,1816 West Main Street,Jacksonville,AR,72076,34.86755212,-92.13004967
Centennial Bank,Main Street Argenta,Limited Service Mobile Office,305 East Broadway,North Little Rock,AR,72114,34.75602931,-92.26502368
Centennial Bank,Maumelle,Full Service Brick and Mortar Office,9453 Maumelle Boulevard,Maumelle,AR,72113,34.81928181,-92.36551452
Centennial Bank,Mayflower,Full Service Retail Office,582 Hwy 365 South,Mayflower,AR,72106,34.96532996,-92.42255248
Centennial Bank,Metro,Full Service Brick and Mortar Office,2901 South Walton Boulevard,Bentonville,AR,72712,36.342432,-94.2103215
Centennial Bank,Monette,Full Service Brick and Mortar Office,302 West Drew Avenue,Monette,AR,72447,35.89056169,-90.34366656
Centennial Bank,Morrilton,Full Service Brick and Mortar Office,1302 North Business Highway 9,Morrilton,AR,72110,35.16309799,-92.72994954
Centennial Bank,Mountain Home,Full Service Brick and Mortar Office,665 Highway 62 East,Mountain Home,AR,72653,36.345537,-92.3776065
Centennial Bank,Mountain View,Full Service Brick and Mortar Office,121 East Main Street,Mountain View,AR,72560,35.86783318,-92.11609998
Centennial Bank,North,Full Service Brick and Mortar Office,2690 Donaghey,Conway,AR,72032,35.1121688,-92.44773461
Centennial Bank,Paragould Kingshighway,Full Service Brick and Mortar Office,2300 West Kingshighway,Paragould,AR,72450,36.05978574,-90.51896649
Centennial Bank,Paragould Linwood Dr,Full Service Brick and Mortar Office,2404 Linwood Drive,Paragould,AR,72450,36.03188878,-90.52044885
Centennial Bank,Paragould-Main,Full Service Brick and Mortar Office,300 West Emerson,Paragould,AR,72450,36.05553353,-90.48891991
Centennial Bank,Parkway,Full Service Brick and Mortar Office,2506 East Parkway Drive,Russellville,AR,72802,35.28245778,-93.1044493
Centennial Bank,Plaza,Full Service Brick and Mortar Office,1445 Hogan Lane,Conway,AR,72034,35.09912685,-92.4976878
Centennial Bank,Pottsville,Full Service Brick and Mortar Office,5987 U.S. Highway 64 East,Pottsville,AR,72858,35.254161,-93.048183
Centennial Bank,Quitman Office,Full Service Brick and Mortar Office,6039 Heber Springs Road West,Quitman,AR,72131,35.38396822,-92.2162121
Centennial Bank,Race Avenue,Full Service Brick and Mortar Office,2620 East Race Avenue,Searcy,AR,72143,35.25057992,-91.70611042
Centennial Bank,Rector,Full Service Brick and Mortar Office,801 East 9th Street,Rector,AR,72461,36.25902146,-90.28358117
Centennial Bank,Riverdale,Full Service Brick and Mortar Office,2610 Cantrell Road,Little Rock,AR,72202,34.75921425,-92.3064189
Centennial Bank,Rodney Parham Road,Full Service Brick and Mortar Office,9712 Rodney Parham Road,Little Rock,AR,72227,34.761996,-92.3820345
Centennial Bank,Rogers,Full Service Brick and Mortar Office,4000 West Walnut,Rogers,AR,72756,36.33480565,-94.17567477
Centennial Bank,Rose City,Full Service Brick and Mortar Office,4308 Broadway,North Little Rock,AR,72117,34.75651388,-92.21706377
Centennial Bank,Russellville,Full Service Brick and Mortar Office,2701 West Main Street,Russellville,AR,72801,35.285841,-93.1612185
Centennial Bank,Russellville North Ave,Full Service Brick and Mortar Office,401 North Arkansas Avenue,Russellville,AR,72811,35.281611,-93.1345785
Centennial Bank,Saline County Mobile,Limited Service Mobile Office,620 Chestnut Street,Conway,AR,72032,35.088525,-92.437884
Centennial Bank,Searcy,Full Service Brick and Mortar Office,1300 West Beebe-Capps Expressway,Searcy,AR,72143,35.24420727,-91.7503776
Centennial Bank,Searcy Race Street,Full Service Brick and Mortar Office,3601 East Race Street,Searcy,AR,72143,35.25024784,-91.68562984
Centennial Bank,Sherwood,Full Service Brick and Mortar Office,7213 Highway 107,Sherwood,AR,72120,34.821144,-92.232855
Centennial Bank,Siloam Springs-Thompson,Full Service Brick and Mortar Office,2485 Highway 412 East,Siloam Springs,AR,72761,36.181674,-94.516038
Centennial Bank,South,Full Service Brick and Mortar Office,2500 Dave Ward Drive,Conway,AR,72034,35.070465,-92.46391283
Centennial Bank,Southside,Full Service Brick and Mortar Office,1204 South Pine Street,Cabot,AR,72023,34.953111,-92.0085963
Centennial Bank,Sylamore,Full Service Brick and Mortar Office,301 Sylamore Avenue,Mountain View,AR,72560,35.8670547,-92.10611415
Centennial Bank,Tontitown,Full Service Brick and Mortar Office,786 East Henri De Tonti Boulevard,Tontitown,AR,72770,36.17607787,-94.22236399
Centennial Bank,University,Full Service Brick and Mortar Office,2922 South University,Little Rock,AR,72204,34.724241,-92.3425425
Centennial Bank,Van Buren,Full Service Brick and Mortar Office,2110 Fayetteville Road,Van Buren,AR,72956,35.46769432,-94.35634713
Centennial Bank,Vilonia,Full Service Brick and Mortar Office,1044 Main Street,Vilonia,AR,72173,35.08278181,-92.21768634
Centennial Bank,Ward,Full Service Brick and Mortar Office,120 West North Street,Ward,AR,72176,35.03249013,-91.94733443
Centennial Bank,West,Full Service Brick and Mortar Office,945 Salem Road,Conway,AR,72034,35.091157,-92.47149753
Centennial Bank,West Main,Full Service Brick and Mortar Office,2171 West Main Street,Cabot,AR,72023,34.98248435,-92.04213714
Centennial Bank,West Sunset,Full Service Brick and Mortar Office,3395 West Sunset Avenue,Springdale,AR,72762,36.17502952,-94.16789961
First Security Bank,1140 Highway 25b,Full Service Brick and Mortar Office,1140 Highway 25b,Heber Springs,AR,72543,35.50387107,-92.02954649
First Security Bank,5 North Office,Full Service Brick and Mortar Office,520 Highway 5 North,Mountain Home,AR,72654,36.34418192,-92.39163754
First Security Bank,906 South Pine,Full Service Brick and Mortar Office,"906 South Pine, Suite 14",Cabot,AR,72023,34.957287,-92.0096145
First Security Bank,Beebe Capps,Full Service Brick and Mortar Office,2531 W Beebe-Capps Expressway,Searcy,AR,72143,35.24721816,-91.77329073
First Security Bank,Beebe West,Full Service Brick and Mortar Office,22 Highway 64 West,Beebe,AR,72012,35.069472,-91.920969
First Security Bank,Benton,Full Service Brick and Mortar Office,205 West Carpenter,Benton,AR,72015,34.56949218,-92.58471922
First Security Bank,Bentonville,Full Service Brick and Mortar Office,2300 South Walton Boulevard,Bentonville,AR,72712,36.347454,-94.211361
First Security Bank,Bentonville South Main,Full Service Brick and Mortar Office,108 S Main St,Bentonville,AR,72712,36.37187681,-94.20885712
First Security Bank,Branch At The Ranch,Full Service Brick and Mortar Office,17810 Cantrell Road,Little Rock,AR,72223,34.8077021,-92.46692285
First Security Bank,Broadway North Little Rock,Full Service Brick and Mortar Office,415 East Broadway,North Little Rock,AR,72114,34.756344,-92.2633425
First Security Bank,Bryant,Full Service Brick and Mortar Office,1823 North Reynolds Road,Bryant,AR,72022,34.61158539,-92.49576503
First Security Bank,Bryant,Full Service Brick and Mortar Office,20697 I-30,Bryant,AR,72022,34.60527,-92.5336125
First Security Bank,Cabot,Full Service Brick and Mortar Office,205 West Pine Street,Cabot,AR,72023,34.974594,-92.017053
First Security Bank,Cabot Highway 89,Full Service Brick and Mortar Office,2255 West Main Street,Cabot,AR,72023,34.98292761,-92.04338156
First Security Bank,Center Street,Full Service Brick and Mortar Office,400 West Center Street,Beebe,AR,72012,35.068527,-91.8834615
First Security Bank,Centerton,Full Service Brick and Mortar Office,1777 Centerton Avenue,Centerton,AR,72719,36.35780688,-94.25393749
First Security Bank,Central Boulevard,Full Service Brick and Mortar Office,Central Boulevard,Bull Shoals,AR,72619,36.37557259,-92.59951848
First Security Bank,Chenal,Full Service Brick and Mortar Office,15420 Chenal Parkway,Little Rock,AR,72211,34.757064,-92.442681
First Security Bank,Clarksville,Full Service Brick and Mortar Office,214 West Main Street,Clarksville,AR,72830,35.47129335,-93.4653578
First Security Bank,Clarksville South Rogers,Full Service Brick and Mortar Office,1007 South Rogers,Clarksville,AR,72830,35.45766263,-93.46221928
First Security Bank,Clinton Banking Center,Full Service Brick and Mortar Office,112 Volunteers Parkway,Clinton,AR,72031,35.56555647,-92.45235142
First Security Bank,Conway,Full Service Brick and Mortar Office,1001 Front Street,Conway,AR,72032,35.091621,-92.4415785
First Security Bank,Cravens Street Drive-Up Bking Ctr Br,Limited Service Facility Office,115 North Cravens Street,Clarksville,AR,72830,35.47176413,-93.46449781
First Security Bank,Dave Ward,Full Service Brick and Mortar Office,2101 Dave Ward Drive,Conway,AR,72032,35.06998842,-92.45460088
First Security Bank,Dewitt Henry Drive Facility,Full Service Brick and Mortar Office,Dewitt Henry Drive,Beebe,AR,72012,35.07761161,-91.89516321
First Security Bank,East,Full Service Brick and Mortar Office,1110 E Oak,Conway,AR,72032,35.091765,-92.414214
First Security Bank,East,Full Service Brick and Mortar Office,2012 East Robinson Avenue,Springdale,AR,72764,36.16677648,-94.10895939
First Security Bank,East Race,Full Service Brick and Mortar Office,2800 East Race Avenue,Searcy,AR,72143,35.251092,-91.7041815
First Security Bank,Fayetteville,Full Service Brick and Mortar Office,11 North College Avenue,Fayetteville,AR,72701,36.06346632,-94.15793926
First Security Bank,Fayetteville East,Full Service Brick and Mortar Office,2710 East Mission Blvd,Fayetteville,AR,72703,36.087597,-94.1228775
First Security Bank,Fayetteville Main,Full Service Brick and Mortar Office,1219 East Joyce Boulevard,Fayetteville,AR,72703,36.12164257,-94.14139193
First Security Bank,Fayetteville West,Full Service Brick and Mortar Office,3443 West Wedington Drive,Fayetteville,AR,72701,36.07794,-94.209732
First Security Bank,First Security Bank,Full Service Brick and Mortar Office,314 North Spring Street,Searcy,AR,72143,35.25053431,-91.73766805
First Security Bank,First Security Bank Of Mountain Home,Full Service Brick and Mortar Office,105 East Ninth Street,Mountain Home,AR,72653,36.33299149,-92.384046
First Security Bank,First Security Bank Of Mountain Home,Full Service Brick and Mortar Office,601 East Main Street,Mountain View,AR,72560,35.86526367,-92.11021858
First Security Bank,Fort Smith Garrison,Full Service Brick and Mortar Office,720 Garrison Ave,Fort Smith,AR,72901,35.386029,-94.4238645
First Security Bank,Gassville,Full Service Brick and Mortar Office,7447 Highway 62 West,Gassville,AR,72635,36.287595,-92.481021
First Security Bank,Gin Creek,Limited Service Administrative Office,2800 East Race Avenue,Searcy,AR,72143,35.251092,-91.7041815
First Security Bank,Greenbrier,Full Service Brick and Mortar Office,7 Wilson Farm Road,Greenbrier,AR,72058,35.22262045,-92.38692719
First Security Bank,Heber Springs South,Full Service Brick and Mortar Office,200 South Seventh Street,Heber Springs,AR,72543,35.49080128,-92.0364214
First Security Bank,Highway 12,Full Service Brick and Mortar Office,14512 Highway 12 East,Rogers,AR,72757,36.34224556,-94.06086701
First Security Bank,Hot Springs Airport Road,Full Service Brick and Mortar Office,1759 Airport Road,Hot Springs National Park,AR,71913,34.463205,-93.145419
First Security Bank,Hot Springs,Full Service Brick and Mortar Office,4129 Central Avenue,Hot Springs National Park,AR,71913,34.45371287,-93.06627689
First Security Bank,Hot Springs Malvern Avenue,Full Service Brick and Mortar Office,1729 Malvern Ave,Hot Springs National Park,AR,71901,34.48946958,-93.03583159
First Security Bank,Indian Hills North Little Rock Branc,Full Service Brick and Mortar Office,6855 Jfk Boulevard,North Little Rock,AR,72114,34.817922,-92.238273
First Security Bank,Jonesboro,Full Service Brick and Mortar Office,613 Southwest Drive,Jonesboro,AR,72401,35.814771,-90.712269
First Security Bank,Jonesboro Hilltop,Full Service Brick and Mortar Office,4204 East Johnson Avenue,Jonesboro,AR,72401,35.86148485,-90.64809434
First Security Bank,Judsonia,Full Service Brick and Mortar Office,Jefferson And Van Buren Streets,Judsonia,AR,72081,35.271018,-91.6396605
First Security Bank,Little Rock Bass Pro Drive,Full Service Brick and Mortar Office,10 Bass Pro Drive,Little Rock,AR,72201,34.65752409,-92.41160948
First Security Bank,Little Rock,Full Service Brick and Mortar Office,4934 And 4936 West Markham Street,Little Rock,AR,72205,34.7518865,-92.32881358
First Security Bank,Little Rock Cantrell,Full Service Brick and Mortar Office,11300 Cantrell Ste 100,Little Rock,AR,72201,34.793712,-92.3985405
First Security Bank,Little Rock Heights,Full Service Brick and Mortar Office,5600 Kavanaugh Drive,Little Rock,AR,72207,34.77022488,-92.33648404
First Security Bank,Lowell,Full Service Brick and Mortar Office,400 West Monroe,Lowell,AR,72745,36.25432219,-94.14382905
First Security Bank,Markham I-430,Full Service Brick and Mortar Office,10421 West Markham,Little Rock,AR,72205,34.753311,-92.389941
First Security Bank,Maumelle,Full Service Brick and Mortar Office,12005 Crystal Hill Road,Maumelle,AR,72113,34.8274802,-92.39262489
First Security Bank,Mayflower Banking Center,Full Service Brick and Mortar Office,624 Highway 365 South,Mayflower,AR,72106,34.95866754,-92.42303462
First Security Bank,Mccain,Full Service Brick and Mortar Office,2504 Mccain Boulevard,North Little Rock,AR,72116,34.796196,-92.236707
First Security Bank,Mcrae,Full Service Brick and Mortar Office,601 East First Street,Mc Rae,AR,72102,35.11298587,-91.82220974
First Security Bank,Messenger Service/Benton & Washingto,Limited Service Messenger Office,100 West Emma,Springdale,AR,72764,36.1851005,-94.13091986
First Security Bank,Military,Full Service Brick and Mortar Office,1401 Military Road,Benton,AR,72015,34.576929,-92.575953
First Security Bank,North Garland Avenue,Full Service Brick and Mortar Office,"640 North Garland Avenue, Suite 208",Fayetteville,AR,72701,36.07281799,-94.17544449
First Security Bank,Northeast,Full Service Brick and Mortar Office,949 Highway 62 East,Mountain Home,AR,72653,36.349461,-92.3726835
First Security Bank,Northwest,Full Service Brick and Mortar Office,1390 Highway 64 West,Conway,AR,72032,35.0980189,-92.43795383
First Security Bank,Pangburn,Full Service Brick and Mortar Office,502 Main Street,Pangburn,AR,72121,35.423982,-91.8414765
First Security Bank,President Clinton Avenue,Full Service Brick and Mortar Office,521 President Clinton Avenue,Little Rock,AR,72201,34.747146,-92.264688
First Security Bank,Prince St,Full Service Brick and Mortar Office,2925 Prince,Conway,AR,72032,35.091882,-92.472813
First Security Bank,Rogers Pinnacle,Full Service Brick and Mortar Office,3333 Pinnacle Hills Pkwy,Rogers,AR,72756,36.30483,-94.186683
First Security Bank,Russellville,Full Service Brick and Mortar Office,2504 West Main Street,Russellville,AR,72801,35.28558,-93.157479
First Security Bank,Salem,Full Service Brick and Mortar Office,1212 Salem Road,Benton,AR,72015,34.62811128,-92.56843017
First Security Bank,Sherwood,Full Service Brick and Mortar Office,9750 Brockington Road,Sherwood,AR,72120,34.84456989,-92.1906276
First Security Bank,South Main,Full Service Brick and Mortar Office,1118 South Main Street,Searcy,AR,72143,35.23782222,-91.73455807
First Security Bank,South Thompson,Full Service Brick and Mortar Office,5208 South Thompson,Springdale,AR,72764,36.13407853,-94.14559369
First Security Bank,Springdale West,Limited Service Trust Office,2500 West Sunset,Springdale,AR,72764,36.17491746,-94.15780803
First Security Bank,Stadium Boulevard - Jonesboro,Full Service Brick and Mortar Office,1341 Stadium Boulevard,Jonesboro,AR,72401,35.82999151,-90.66865176
First Security Bank,The First N.B. Of Springdale,Full Service Brick and Mortar Office,100 West Emma Street,Springdale,AR,72764,36.1851005,-94.13091986
First Security Bank,The Union Bank Of Bryant,Full Service Brick and Mortar Office,5619 Highway 5 North,Bryant,AR,72022,34.624458,-92.500515
First Security Bank,Vilonia Banking Center,Full Service Brick and Mortar Office,1137 Main St.,Vilonia,AR,72173,35.08501285,-92.19988913
First Security Bank,Wal-Mart Super Center,Full Service Brick and Mortar Office,2763 Highway 62 East,Mountain Home,AR,72653,36.35804001,-92.34011364
First Security Bank,West Main Street,Full Service Brick and Mortar Office,191 West Main Street,Farmington,AR,72730,36.04122,-94.2490395
First Security Bank,West Sunset,Full Service Brick and Mortar Office,2863 West Sunset,Springdale,AR,72762,36.17491849,-94.16184027
First Security Bank,West Walnut Street,Full Service Brick and Mortar Office,3901 West Walnut Street,Rogers,AR,72756,36.33534,-94.1733945
Regions Bank,Albert Pike,Full Service Brick and Mortar Office,900 Albert Pike,Hot Springs National Park,AR,71913,34.494219,-93.079845
Regions Bank,Arkadelphia Main,Full Service Brick and Mortar Office,506 Main Street,Arkadelphia,AR,71923,34.11957952,-93.05270983
Regions Bank,Bald Knob,Full Service Brick and Mortar Office,3410 Highway 367 N.,Bald Knob,AR,72010,35.3151205,-91.56408738
Regions Bank,Baseline,Full Service Brick and Mortar Office,6101 Baseline Road,Little Rock,AR,72209,34.66916147,-92.34558453
Regions Bank,Beebe,Full Service Brick and Mortar Office,1500 W. Dewitt Henry Drive,Beebe,AR,72012,35.07404862,-91.90091279
Regions Bank,Benton Ar Main,Full Service Brick and Mortar Office,146 W. South Street,Benton,AR,72015,34.563267,-92.5878015
Regions Bank,Bentonville 1409 S Walton Blvd Branc,Full Service Brick and Mortar Office,1409 S. Walton Boulevard,Bentonville,AR,72712,36.355815,-94.211271
Regions Bank,Bowman Remote Drive Thru,Limited Service Facility Office,12000 West Markham Street,Little Rock,AR,72211,34.75413646,-92.4079005
Regions Bank,Bryant,Full Service Brick and Mortar Office,1702 N. Reynolds Road,Bryant,AR,72022,34.610319,-92.4928515
Regions Bank,Cabot Downtown,Full Service Brick and Mortar Office,106 South 2nd Street,Cabot,AR,72023,34.97378092,-92.01748642
Regions Bank,Cabot Southside Remote Drive Thru Br,Limited Service Facility Office,3110 Bill Foster Memorial Highway,Cabot,AR,72023,34.94542743,-92.0608317
Regions Bank,Cantrell West,Full Service Brick and Mortar Office,8023 Cantrell Road,Little Rock,AR,72227,34.77567295,-92.36238662
Regions Bank,Carmona,Full Service Brick and Mortar Office,696 Desoto Boulevard,Hot Springs Village,AR,71909,34.679511,-92.998548
Regions Bank,Central,Full Service Brick and Mortar Office,5700 Rogers Avenue,Fort Smith,AR,72903,35.361054,-94.369347
Regions Bank,Chenal Promenade,Full Service Brick and Mortar Office,17615 Chenal Parkway,Little Rock,AR,72223,34.764966,-92.456019
Regions Bank,Clarksville Ar Main,Full Service Brick and Mortar Office,115 S. Cravens Street,Clarksville,AR,72830,35.47003054,-93.46450429
Regions Bank,Clinton Ar Main,Full Service Brick and Mortar Office,179 Elm Street,Clinton,AR,72031,35.59264946,-92.45771734
Regions Bank,Constitution,Full Service Brick and Mortar Office,620 S. Constitution Avenue,Ashdown,AR,71822,33.66567401,-94.12311072
Regions Bank,Conway Main,Full Service Brick and Mortar Office,1023 Main Street,Conway,AR,72032,35.08987242,-92.4387829
Regions Bank,Cypress Center,Full Service Brick and Mortar Office,2200 N. Rodney Parham Road,Little Rock,AR,72212,34.773048,-92.403486
Regions Bank,Dixieland,Full Service Brick and Mortar Office,1800 W. Walnut Street,Rogers,AR,72756,36.33399605,-94.14437263
Regions Bank,Earle,Full Service Brick and Mortar Office,801 Commerce Street,Earle,AR,72331,35.27210785,-90.46578864
Regions Bank,East Little Rock,Full Service Brick and Mortar Office,824 E. Ninth Street,Little Rock,AR,72202,34.74,-92.261601
Regions Bank,East Race St,Full Service Brick and Mortar Office,2717 E. Race Street,Searcy,AR,72143,35.25042784,-91.70450816
Regions Bank,East Russellville,Full Service Brick and Mortar Office,2404 East Parkway Drive,Russellville,AR,72802,35.28247706,-93.10567746
Regions Bank,El Dorado Main,Full Service Brick and Mortar Office,100 E. Peach Street,El Dorado,AR,71730,33.21404052,-92.66333014
Regions Bank,Fairfield Bay,Full Service Brick and Mortar Office,121 Lost Creek Parkway,Fairfield Bay,AR,72088,35.61264306,-92.26316376
Regions Bank,Fayetteville Ar,Full Service Brick and Mortar Office,1465 E. Joyce Boulevard,Fayetteville,AR,72703,36.119439,-94.1388075
Regions Bank,Fianna Hills,Full Service Brick and Mortar Office,9000 Jenny Lind Road,Fort Smith,AR,72908,35.29923689,-94.41004375
Regions Bank,Financial West,Full Service Brick and Mortar Office,800 S. Shackleford,Little Rock,AR,72211,34.746372,-92.3947245
Regions Bank,Fordyce,Full Service Brick and Mortar Office,611 W. Fourth Street,Fordyce,AR,71742,33.81240677,-92.41876359
Regions Bank,Forrest City,Full Service Brick and Mortar Office,321 N. Rosser Street,Forrest City,AR,72335,35.01085606,-90.78723833
Regions Bank,Forrest City Civic Ctr,Limited Service Facility Office,1403 Washington Street,Forrest City,AR,72335,35.02365962,-90.7875945
Regions Bank,Fourth St,Full Service Brick and Mortar Office,204 Wood Street,Texarkana,AR,71854,33.42252604,-94.04077695
Regions Bank,Ft Smith Main,Full Service Brick and Mortar Office,723 Garrison Avenue,Fort Smith,AR,72901,35.386515,-94.4233965
Regions Bank,Greenbrier,Full Service Brick and Mortar Office,48 S. Broadview Street,Greenbrier,AR,72058,35.22889635,-92.38802786
Regions Bank,Harrison Hester,Full Service Brick and Mortar Office,318 Hester Drive,Harrison,AR,72601,36.26298228,-93.13616742
Regions Bank,Heights Little Rock,Full Service Brick and Mortar Office,6001 R Street,Little Rock,AR,72207,34.76932919,-92.34109504
Regions Bank,Hot Springs Main,Full Service Brick and Mortar Office,302 Malvern Avenue,Hot Springs National Park,AR,71901,34.50884019,-93.0527876
Regions Bank,Hwy 10,Full Service Brick and Mortar Office,14920 Cantrell Road,Little Rock,AR,72223,34.80143626,-92.44096759
Regions Bank,Industrial,Full Service Brick and Mortar Office,870 Enterprise Avenue,Conway,AR,72032,35.06711958,-92.42759038
Regions Bank,Jfk And Mccain,Full Service Brick and Mortar Office,4900 John F. Kennedy Boulevard,North Little Rock,AR,72116,34.80093226,-92.25491861
Regions Bank,Jonesboro Main,Full Service Brick and Mortar Office,2400 E. Highland Drive,Jonesboro,AR,72401,35.822061,-90.6761655
Regions Bank,Lakewood Ar,Full Service Brick and Mortar Office,4545 Fairway,North Little Rock,AR,72116,34.797852,-92.233881
Regions Bank,Little Rock Main,Full Service Brick and Mortar Office,400 W. Capitol Avenue,Little Rock,AR,72201,34.745067,-92.275119
Regions Bank,Majestic Lodge,Full Service Brick and Mortar Office,101 Majestic Lodge Road,Hot Springs National Park,AR,71913,34.46841327,-93.13976788
Regions Bank,Mall,Full Service Brick and Mortar Office,4441 Central Avenue,Hot Springs National Park,AR,71913,34.45133564,-93.07754925
Regions Bank,Malvern,Full Service Brick and Mortar Office,1555 Malvern Avenue,Hot Springs National Park,AR,71913,34.49443033,-93.0381621
Regions Bank,Marion West,Full Service Brick and Mortar Office,141 Block Street,Marion,AR,72364,35.20944161,-90.20427017
Regions Bank,Massard Crossing,Full Service Brick and Mortar Office,8385 Rogers Avenue,Fort Smith,AR,72903,35.347653,-94.337595
Regions Bank,Maumelle,Full Service Brick and Mortar Office,101 Country Club Parkway,Maumelle,AR,72113,34.84080791,-92.40300649
Regions Bank,Medical Center Little Rock,Full Service Brick and Mortar Office,4224 W. Markham Street,Little Rock,AR,72205,34.751916,-92.3203215
Regions Bank,Military Rd,Full Service Brick and Mortar Office,917 Military Road,Benton,AR,72015,34.571421,-92.582541
Regions Bank,Morrilton Main,Full Service Brick and Mortar Office,300 North Moose Street,Morrilton,AR,72110,35.15487053,-92.74326832
Regions Bank,Morrilton Main Remote Drive Thru Bra,Limited Service Facility Office,213 E. Elm Street,Morrilton,AR,72110,35.15470524,-92.74312792
Regions Bank,Nashville Ar Main,Full Service Brick and Mortar Office,103 N. Main Street,Nashville,AR,71852,33.943626,-93.8473875
Regions Bank,Nashville S 4th St Remote Drive Thru,Limited Service Facility Office,1101 S. Fourth Street,Nashville,AR,71852,33.93332801,-93.8509151
Regions Bank,Newport,Full Service Brick and Mortar Office,2153 Malcolm Avenue,Newport,AR,72112,35.606295,-91.2534075
Regions Bank,North State Line,Full Service Brick and Mortar Office,2800 N. State Line Avenue,Texarkana,AR,71854,33.4496283,-94.0430847
Regions Bank,Northeast Remote Drive Thru,Limited Service Facility Office,1820 Highway 9,Morrilton,AR,72110,35.17165254,-92.71787985
Regions Bank,Oaklawn,Full Service Brick and Mortar Office,3027 Central Avenue,Hot Springs National Park,AR,71913,34.47916653,-93.05973784
Regions Bank,Osceola Ar,Full Service Brick and Mortar Office,1300 West Keiser Avenue,Osceola,AR,72370,35.69795848,-89.9882955
Regions Bank,Paragould Midtown,Full Service Brick and Mortar Office,1512 W Court Street,Paragould,AR,72450,36.0562645,-90.50606903
Regions Bank,River St Remote Drive Thru,Limited Service Facility Office,112 River Street,Benton,AR,72015,34.56292536,-92.58808724
Regions Bank,Rogers Main,Full Service Brick and Mortar Office,5050 Northgate Road,Rogers,AR,72758,36.30396493,-94.18583969
Regions Bank,Russellville Main,Full Service Brick and Mortar Office,201 S. Denver Avenue,Russellville,AR,72801,35.27760804,-93.13663111
Regions Bank,Russellville Remote Drive Thru Branc,Limited Service Facility Office,110 S. Denver Avenue,Russellville,AR,72801,35.278146,-93.136761
Regions Bank,Searcy Main,Full Service Brick and Mortar Office,200 W. Race Street,Searcy,AR,72143,35.251002,-91.7442225
Regions Bank,Searcy Main Remote Drive Thru,Limited Service Facility Office,200 Gum And Vine,Searcy,AR,72143,35.251614,-91.739691
Regions Bank,Sheridan,Full Service Brick and Mortar Office,121 S. Oak Street,Sheridan,AR,72150,34.30621753,-92.40151424
Regions Bank,Sherwood Little Rock,Full Service Brick and Mortar Office,3616 E. Kiehl Avenue,Sherwood,AR,72120,34.831827,-92.1913965
Regions Bank,South Side,Full Service Brick and Mortar Office,2000 S. Zero Street,Fort Smith,AR,72901,35.327583,-94.413699
Regions Bank,Southwest Rd,Full Service Brick and Mortar Office,617 Southwest Drive,Jonesboro,AR,72401,35.814465,-90.7126875
Regions Bank,University Little Rock,Full Service Brick and Mortar Office,5820 Asher Avenue,Little Rock,AR,72204,34.719228,-92.340144
Regions Bank,Walnut Ridge,Full Service Brick and Mortar Office,212 West Walnut Street,Walnut Ridge,AR,72476,36.06966419,-90.95613947
Regions Bank,West Conway,Full Service Brick and Mortar Office,2905 Prince Street,Conway,AR,72034,35.09227098,-92.47170066
Regions Bank,West Little Rock,Full Service Brick and Mortar Office,10120 North Rodney Parham Road,Little Rock,AR,72227,34.76599857,-92.3866684
Regions Bank,West Main Russellville,Full Service Brick and Mortar Office,1907 West Main Street,Russellville,AR,72801,35.282817,-93.151224
Regions Bank,West Memphis Main,Full Service Brick and Mortar Office,231 E. Broadway Street,West Memphis,AR,72301,35.14651549,-90.1832895
Regions Bank,West Pleasure,Full Service Brick and Mortar Office,2001 W Beebe Capps Expressway,Searcy,AR,72143,35.246898,-91.759797
Regions Bank,Wynne,Full Service Brick and Mortar Office,500 Falls Boulevard N.,Wynne,AR,72396,35.22622129,-90.78626866
Simmons Bank,Albert Pike,Full Service Brick and Mortar Office,1431 Albert Pike,Hot Springs National Park,AR,71913,34.49285311,-93.08679052
Simmons Bank,Albert Pike,Full Service Brick and Mortar Office,4200 Rogers Avenue,Fort Smith,AR,72903,35.3691,-94.3857585
Simmons Bank,Baseline,Full Service Brick and Mortar Office,6712 Baseline Road,Little Rock,AR,72209,34.669863,-92.3528295
Simmons Bank,Beebe Banking Center,Full Service Brick and Mortar Office,901 N Asu Blvd,Beebe,AR,72012,35.075961,-91.900053
Simmons Bank,Benton,Full Service Brick and Mortar Office,1323 Military,Benton,AR,72015,34.576533,-92.576565
Simmons Bank,Bentonville Walton & A Street,Full Service Brick and Mortar Office,1411 South Walton Boulevard,Bentonville,AR,72712,36.355203,-94.211046
Simmons Bank,Broadmoor,Full Service Brick and Mortar Office,1809 East Harding Avenue,Pine Bluff,AR,71601,34.21309947,-91.98219111
Simmons Bank,Bryant,Full Service Brick and Mortar Office,3109 North Reynolds Road,Bryant,AR,72022,34.622604,-92.4994485
Simmons Bank,Cabot,Full Service Brick and Mortar Office,202 South Rockwood Drive,Cabot,AR,72023,34.975053,-92.042478
Simmons Bank,Charleston,Full Service Brick and Mortar Office,521 East Main Street,Charleston,AR,72933,35.296857,-94.0373865
Simmons Bank,Chenal,Full Service Brick and Mortar Office,16600 Chenal Parkway,Little Rock,AR,72211,34.758873,-92.4500475
Simmons Bank,Clarksville,Full Service Brick and Mortar Office,1100 Rogers Street,Clarksville,AR,72830,35.45951214,-93.4605716
Simmons Bank,Colony West Shopping Center,Full Service Brick and Mortar Office,10300 N. Rodney Parham Rd,Little Rock,AR,72227,34.767963,-92.3870475
Simmons Bank,Conway,Full Service Brick and Mortar Office,"1055 Steel Avenue, Suite 110",Conway,AR,72032,35.10254133,-92.43879922
Simmons Bank,Conway,Full Service Brick and Mortar Office,600 Salem Road,Conway,AR,72034,35.08654507,-92.47162472
Simmons Bank,Conway Commons,Full Service Brick and Mortar Office,1005 East Oak Street,Conway,AR,72032,35.0913807,-92.41634052
Simmons Bank,Conway Oak,Full Service Brick and Mortar Office,414 Oak Street,Conway,AR,72032,35.09174035,-92.43146839
Simmons Bank,Delta Trust,Full Service Brick and Mortar Office,1853 Highway 165 South,Parkdale,AR,71661,33.12058524,-91.5424693
Simmons Bank,Dermott,Full Service Brick and Mortar Office,108 East Speedway,Dermott,AR,71638,33.52498539,-91.43557845
Simmons Bank,Dollarway,Full Service Brick and Mortar Office,4420 Dollarway Road,White Hall,AR,71602,34.23892604,-92.04857211
Simmons Bank,Downtown Motor Bank,Limited Service Facility Office,924 Broadway At I-630,Little Rock,AR,72201,34.739748,-92.27691
Simmons Bank,Dumas,Full Service Brick and Mortar Office,400 Highway 65 South,Dumas,AR,71639,33.88297938,-91.48345699
Simmons Bank,East End,Full Service Brick and Mortar Office,"20622 Arch Street, Suite 5",Hensley,AR,72065,34.56177963,-92.3364879
Simmons Bank,East Main,Full Service Brick and Mortar Office,3079 East Main,Russellville,AR,72801,35.27802594,-93.0962347
Simmons Bank,El Dorado,Full Service Brick and Mortar Office,100 West Grove Street,El Dorado,AR,71730,33.21828406,-92.66367049
Simmons Bank,Fayetteville Crossover,Full Service Brick and Mortar Office,N Crossover Road,Fayetteville,AR,72703,36.1271137,-94.11916625
Simmons Bank,Fayetteville Highway 62,Full Service Brick and Mortar Office,3111 Martin Luther King Boulevard,Fayetteville,AR,72701,36.05125646,-94.20470323
Simmons Bank,Fayetteville Joyce Street,Full Service Brick and Mortar Office,4033 North Shiloh Drive,Fayetteville,AR,72703,36.12443113,-94.14530861
Simmons Bank,Financial Centre,Full Service Brick and Mortar Office,11525 Financial Center Parkway,Little Rock,AR,72211,34.74694112,-92.40219397
Simmons Bank,Hamburg,Full Service Brick and Mortar Office,612 South Main Street,Hamburg,AR,71646,33.21737086,-91.7979908
Simmons Bank,Highway 10 And Chenal,Full Service Brick and Mortar Office,23816 Chenal Parkway,Little Rock,AR,72223,34.80947922,-92.48927416
Simmons Bank,Highway 65 South,Full Service Brick and Mortar Office,1783 Highway 65 South,Clinton,AR,72031,35.56979058,-92.45198775
Simmons Bank,Hillcrest,Full Service Brick and Mortar Office,2800 Kavanaugh Boulevard,Little Rock,AR,72205,34.75790856,-92.32462298
Simmons Bank,Hot Springs,Full Service Brick and Mortar Office,100 Werner Street,Hot Springs National Park,AR,71913,34.46617386,-93.06067411
Simmons Bank,Jefferson Square,Full Service Brick and Mortar Office,2711 Olive Street,Pine Bluff,AR,71603,34.20152134,-92.00698773
Simmons Bank,Jonesb0r0,Full Service Brick and Mortar Office,1720 South Caraway Road,Jonesboro,AR,72401,35.823654,-90.677088
Simmons Bank,Kavanaugh,Full Service Brick and Mortar Office,5500 Kavanaugh Boulevard,Little Rock,AR,72207,34.770393,-92.335077
Simmons Bank,Lake Village Highway,Full Service Brick and Mortar Office,728 North Highway 65,Lake Village,AR,71653,33.37383135,-91.30280954
Simmons Bank,Lakewood,Full Service Brick and Mortar Office,2401 Crestwood Road,North Little Rock,AR,72116,34.800129,-92.23703697
Simmons Bank,Landmark,Full Service Brick and Mortar Office,15602 Arch Street Pike,Little Rock,AR,72206,34.61079438,-92.31965598
Simmons Bank,Levy,Full Service Brick and Mortar Office,3901 Camp Robinson Road,North Little Rock,AR,72118,34.79140499,-92.27504965
Simmons Bank,Lincoln,Full Service Brick and Mortar Office,117 Boyer Avenue,Lincoln,AR,72744,35.94920487,-94.42388486
Simmons Bank,Linwood,Full Service Brick and Mortar Office,205 Linwood Drive,Paragould,AR,72450,36.05487407,-90.50511953
Simmons Bank,Malvern Avenue,Full Service Brick and Mortar Office,2350 Malvern Avenue,Hot Springs National Park,AR,71901,34.47249322,-93.0214578
Simmons Bank,Mammoth Springs,Full Service Brick and Mortar Office,165 Main Street,Mammoth Spring,AR,72554,36.49571027,-91.53880395
Simmons Bank,Markham,Full Service Brick and Mortar Office,8500 West Markham,Little Rock,AR,72205,34.753833,-92.3686245
Simmons Bank,Marshall,Full Service Brick and Mortar Office,300 Us Hwy 65 North,Marshall,AR,72650,35.91202636,-92.64074604
Simmons Bank,Maumelle,Full Service Brick and Mortar Office,201 Carnahan Drive,Maumelle,AR,72113,34.85495053,-92.40138
Simmons Bank,Metropolitan Nb,Full Service Brick and Mortar Office,425 West Capitol,Little Rock,AR,72201,34.744095,-92.2755195
Simmons Bank,Mid-City,Full Service Brick and Mortar Office,501 West Washington,Jonesboro,AR,72401,35.83838995,-90.70871207
Simmons Bank,Monticello,Full Service Brick and Mortar Office,473 Hwy 425 N,Monticello,AR,71655,33.63845265,-91.80142074
Simmons Bank,Mountain View,Full Service Brick and Mortar Office,205 Sylamore Avenue,Mountain View,AR,72560,35.86632347,-92.10717899
Simmons Bank,North Poplar,Full Service Brick and Mortar Office,125 North Poplar,Searcy,AR,72143,35.24824317,-91.691036
Simmons Bank,Oak Park,Full Service Brick and Mortar Office,2628 West 28th Avenue,Pine Bluff,AR,71603,34.20179352,-92.029959
Simmons Bank,Ozark,Full Service Brick and Mortar Office,100 West Commercial Street,Ozark,AR,72949,35.487144,-93.8255175
Simmons Bank,Pine Bluff,Limited Service Facility Office,501 Main Street,Pine Bluff,AR,71601,34.2243903,-92.00335524
Simmons Bank,Plaza West,Full Service Brick and Mortar Office,4220 North Rodney Parham Road,Little Rock,AR,72212,34.791552,-92.397834
Simmons Bank,River Market,Limited Service Administrative Office,601 East Third Street,Little Rock,AR,72201,34.74523267,-92.26427578
Simmons Bank,Rogers 8th Street,Full Service Brick and Mortar Office,111 North 8th Street,Rogers,AR,72756,36.335016,-94.125105
Simmons Bank,Rogers,Full Service Brick and Mortar Office,3975 West New Hope Road,Rogers,AR,72758,36.313623,-94.1750325
Simmons Bank,Russellville Main,Full Service Brick and Mortar Office,800 North Arkansas Avenue,Russellville,AR,72801,35.285751,-93.132972
Simmons Bank,Searcy,Full Service Brick and Mortar Office,401 South Main,Searcy,AR,72143,35.13912508,-91.78329577
Simmons Bank,Siloam Springs,Full Service Brick and Mortar Office,1002 South Mt. Olive,Siloam Springs,AR,72761,36.174105,-94.5418635
Simmons Bank,Simmons Bank,Full Service Brick and Mortar Office,501 Main Street,Pine Bluff,AR,71611,34.2243903,-92.00335524
Simmons Bank,South,Full Service Brick and Mortar Office,2305 Zero Street,Fort Smith,AR,72906,35.328204,-94.4101215
Simmons Bank,Southwest Drive,Full Service Brick and Mortar Office,711 Southwest Drive,Jonesboro,AR,72401,35.813475,-90.7140285
Simmons Bank,Springdale,Full Service Brick and Mortar Office,2832 West Sunset,Springdale,AR,72762,36.17496852,-94.16178039
Simmons Bank,Stagecoach Road,Full Service Brick and Mortar Office,10425 Stagecoach Road,Little Rock,AR,72210,34.656543,-92.425851
Simmons Bank,Star City,Full Service Brick and Mortar Office,300 North Lincoln Avenue,Star City,AR,71667,33.9454383,-91.8436578
Simmons Bank,Stonewood Villge,Full Service Brick and Mortar Office,7324 Rogers Avenue,Fort Smith,AR,72903,35.352594,-94.351509
Simmons Bank,Strong,Full Service Brick and Mortar Office,9652 Strong Highway,Strong,AR,71765,33.11157839,-92.35924226
Simmons Bank,The Mccain,Full Service Brick and Mortar Office,3929 Mccain Boulevard,North Little Rock,AR,72116,34.792587,-92.226222
Simmons Bank,Timberlane,Full Service Brick and Mortar Office,535 South Timberlane Drive,El Dorado,AR,71730,33.20474834,-92.68785582
Simmons Bank,University,Full Service Brick and Mortar Office,1704 North University Drive,Pine Bluff,AR,71601,34.24679995,-92.01755276
Simmons Bank,University,Full Service Brick and Mortar Office,5601 South University,Little Rock,AR,72209,34.69870479,-92.34546115
Simmons Bank,Watson Chapel,Full Service Brick and Mortar Office,"3803 Camden Road, Ste 30",Pine Bluff,AR,71603,34.19158506,-92.06261879
Simmons Bank,Weiner,Full Service Brick and Mortar Office,202 Ritter Street,Weiner,AR,72479,35.617203,-90.89870716
Simmons Bank,West Main Street,Full Service Brick and Mortar Office,2500 West Main,Russellville,AR,72801,35.28496876,-93.156807
Simmons Bank,White Hall,Full Service Brick and Mortar Office,8107 Dollarway Road,White Hall,AR,71602,34.27308649,-92.0902224
BancorpSouth Bank,Alma,Full Service Brick and Mortar Office,17 Highway 64 E,Alma,AR,72921,35.482788,-94.22568
BancorpSouth Bank,Ashdown,Full Service Brick and Mortar Office,611 E Wood St,Ashdown,AR,71822,33.66723257,-94.12264281
BancorpSouth Bank,Brinkley,Full Service Brick and Mortar Office,800 N Main St,Brinkley,AR,72021,34.896564,-91.19435502
BancorpSouth Bank,Calico Rock,Full Service Brick and Mortar Office,2006 Highway 56 E,Calico Rock,AR,72519,36.14017705,-92.12428598
BancorpSouth Bank,Camden Downtown,Full Service Brick and Mortar Office,123 Washington St Ne,Camden,AR,71701,33.5860805,-92.82941918
BancorpSouth Bank,Camden Garden Oaks,Full Service Brick and Mortar Office,1137 Washington,Camden,AR,71701,33.58482645,-92.84978519
BancorpSouth Bank,Carlisle,Full Service Brick and Mortar Office,118 N Court St,Carlisle,AR,72024,34.783452,-91.7462295
BancorpSouth Bank,Dequeen,Full Service Brick and Mortar Office,1011 W Collin Raye Dr,De Queen,AR,71832,34.04676251,-94.34927153
BancorpSouth Bank,El Dorado Main Street,Full Service Brick and Mortar Office,101 W Main Street,El Dorado,AR,71730,33.21184947,-92.6641215
BancorpSouth Bank,El Dorado North,Full Service Brick and Mortar Office,1510 N West Ave,El Dorado,AR,71730,33.22715145,-92.66571521
BancorpSouth Bank,Fayetteville,Full Service Brick and Mortar Office,3390 N Futrall Dr,Fayetteville,AR,72703,36.11285152,-94.15633438
BancorpSouth Bank,Fort Smith Downtown,Full Service Brick and Mortar Office,1222 Rogers Ave,Fort Smith,AR,72901,35.382339,-94.420269
BancorpSouth Bank,Fort Smith East,Full Service Brick and Mortar Office,7000 Rogers Ave,Fort Smith,AR,72903,35.353872,-94.3549695
BancorpSouth Bank,Fort Smith North,Full Service Brick and Mortar Office,3117 Grand Ave,Fort Smith,AR,72904,35.38592371,-94.3979886
BancorpSouth Bank,Fort Smith Riley Farm,Full Service Brick and Mortar Office,5900 Riley Park Dr,Fort Smith,AR,72916,35.27167678,-94.36984854
BancorpSouth Bank,Fort Smith South,Full Service Brick and Mortar Office,5800 Highway 71 S,Fort Smith,AR,72908,35.327043,-94.410099
BancorpSouth Bank,Greenwood,Full Service Brick and Mortar Office,803 W Center St,Greenwood,AR,72936,35.21594233,-94.26862129
BancorpSouth Bank,Hazen,Full Service Brick and Mortar Office,101 N Chester St,Hazen,AR,72064,34.78125483,-91.58350505
BancorpSouth Bank,Hope Downtown,Full Service Brick and Mortar Office,200 S Elm St,Hope,AR,71801,33.66703889,-93.59288175
BancorpSouth Bank,Horseshoe Bend,Full Service Brick and Mortar Office,103 Commerce St,Horseshoe Bend,AR,72512,36.2205787,-91.75810353
BancorpSouth Bank,Hot Springs Oaklawn,Full Service Brick and Mortar Office,3101 Central Ave,Hot Springs National Park,AR,71913,34.478631,-93.0594735
BancorpSouth Bank,Jonesboro Fair Park,Full Service Brick and Mortar Office,2201 Fair Park Blvd,Jonesboro,AR,72401,35.81453486,-90.6735782
BancorpSouth Bank,Jonesboro Farville,Full Service Brick and Mortar Office,5902 E Johnson Ave,Jonesboro,AR,72401,35.864631,-90.620514
BancorpSouth Bank,Jonesboro Main Street,Full Service Brick and Mortar Office,700 S Main St,Jonesboro,AR,72401,35.83658596,-90.70500325
BancorpSouth Bank,Jonesboro Ridgepark,Full Service Brick and Mortar Office,1901 W Parker Rd,Jonesboro,AR,72401,35.81604933,-90.73127337
BancorpSouth Bank,Lewisville Ar,Full Service Brick and Mortar Office,307 Spruce St,Lewisville,AR,71845,33.35752317,-93.577646
BancorpSouth Bank,Little Rock Cantrell,Full Service Brick and Mortar Office,2800 Cantrell Rd,Little Rock,AR,72202,34.760934,-92.308203
BancorpSouth Bank,Little Rock Highway 10,Full Service Brick and Mortar Office,17703 Cantrell Rd,Little Rock,AR,72223,34.80768622,-92.46703844
BancorpSouth Bank,Little Rock Pleasant Valley,Full Service Brick and Mortar Office,2201 N Rodney Parham Rd,Little Rock,AR,72212,34.77253059,-92.40248589
BancorpSouth Bank,Little Rock Shakleford,Full Service Brick and Mortar Office,1211 S Shackleford Rd,Little Rock,AR,72211,34.74219121,-92.3943576
BancorpSouth Bank,Magnolia,Full Service Brick and Mortar Office,300 N Jackson St,Magnolia,AR,71753,33.26921827,-93.23919997
BancorpSouth Bank,Main Street,Limited Service Facility Office,1309 Main Street,Conway,AR,72034,35.08899562,-92.44140272
BancorpSouth Bank,Marmaduke,Full Service Brick and Mortar Office,11525 Highway 49 N,Marmaduke,AR,72443,36.18796834,-90.38493699
BancorpSouth Bank,Melbourne,Full Service Brick and Mortar Office,121 E Main St,Melbourne,AR,72556,36.05909646,-91.9048812
BancorpSouth Bank,Osceola,Full Service Brick and Mortar Office,749 W Keiser Ave,Osceola,AR,72370,35.69765298,-89.97789905
BancorpSouth Bank,Paragould,Full Service Brick and Mortar Office,1833 Linwood Dr,Paragould,AR,72450,36.03717438,-90.51441771
BancorpSouth Bank,Pocahontas,Full Service Brick and Mortar Office,1411 Highway 67 S,Pocahontas,AR,72455,36.25144702,-90.96375207
BancorpSouth Bank,Rogers,Full Service Brick and Mortar Office,701 South 52nd Street,Rogers,AR,72758,36.32631837,-94.1863101
BancorpSouth Bank,Stuttgart Main Street,Full Service Brick and Mortar Office,412 S Main St,Stuttgart,AR,72160,34.49855784,-91.55265185
BancorpSouth Bank,Stuttgart South,Full Service Brick and Mortar Office,2006 S Main St,Stuttgart,AR,72160,34.48197886,-91.5531213
BancorpSouth Bank,Taylor,Full Service Brick and Mortar Office,112 W Pine St,Taylor,AR,71861,33.100452,-93.4627455
BancorpSouth Bank,Texarkana Stateline Road,Full Service Brick and Mortar Office,2200 N State Line Ave,Texarkana,AR,71854,33.4439403,-94.0430532
BancorpSouth Bank,Van Buren,Full Service Brick and Mortar Office,2721 Alma Hwy,Van Buren,AR,72956,35.441802,-94.32963
U.S. Bank,Alma,Full Service Brick and Mortar Office,115 Highway 64 West,Alma,AR,72921,35.48436094,-94.22354651
U.S. Bank,Arkadelphia Main Street,Full Service Brick and Mortar Office,526 Main Street,Arkadelphia,AR,71923,34.11958651,-93.05326783
U.S. Bank,Bismarck,Full Service Brick and Mortar Office,6677 Highway 7,Bismarck,AR,71929,34.315407,-93.171096
U.S. Bank,Bryant,Full Service Brick and Mortar Office,100 Commerce St.,Bryant,AR,72022,34.621272,-92.497842
U.S. Bank,Capitol,Full Service Brick and Mortar Office,401 West Capitol Avenue,Little Rock,AR,72201,34.74466485,-92.27507485
U.S. Bank,Chenal,Full Service Brick and Mortar Office,17200 Chenal Parkway,Little Rock,AR,72223,34.7623428,-92.45430009
U.S. Bank,Conway Main,Full Service Brick and Mortar Office,1122 Van Ronkle Street,Conway,AR,72032,35.09175817,-92.4406535
U.S. Bank,Conway West,Full Service Brick and Mortar Office,2620 Prince Street,Conway,AR,72032,35.09262,-92.4668325
U.S. Bank,Flippin,Full Service Brick and Mortar Office,Fourth And Main Streets,Flippin,AR,72634,36.277713,-92.5951185
U.S. Bank,Geyer Springs,Full Service Brick and Mortar Office,6004 Baseline Road,Little Rock,AR,72209,34.66919703,-92.34484641
U.S. Bank,Heber Springs,Full Service Brick and Mortar Office,821 West Main Street,Heber Springs,AR,72543,35.49194955,-92.03816075
U.S. Bank,Heights,Full Service Brick and Mortar Office,5200 Kavanaugh Boulevard,Little Rock,AR,72207,34.77005834,-92.33137822
U.S. Bank,Highway 7 North,Full Service Brick and Mortar Office,101 Cooper Circle,Hot Springs Village,AR,71909,34.65621709,-93.05630319
U.S. Bank,Highway 70 West,Full Service Brick and Mortar Office,1768 Airport Road,Hot Springs National Park,AR,71913,34.46371796,-93.14564509
U.S. Bank,Highway 9b,Full Service Brick and Mortar Office,1539 East Harding Street,Morrilton,AR,72110,35.16700003,-92.72495815
U.S. Bank,Hot Springs Central Avenue,Full Service Brick and Mortar Office,1234 Central Avenue,Hot Springs National Park,AR,71901,34.502211,-93.056337
U.S. Bank,Hot Springs Mall,Full Service Brick and Mortar Office,4451 Central Avenue,Hot Springs National Park,AR,71913,34.45137938,-93.07745131
U.S. Bank,Jacksonville,Full Service Brick and Mortar Office,1804 North First Street,Jacksonville,AR,72076,34.882722,-92.1080745
U.S. Bank,Kiehl,Full Service Brick and Mortar Office,4199 East Kiehl Avenue,Sherwood,AR,72120,34.83198241,-92.1846484
U.S. Bank,Levy,Full Service Brick and Mortar Office,3701 Camp Robinson Road,North Little Rock,AR,72118,34.790085,-92.2767075
U.S. Bank,Malvern Ash Street,Full Service Brick and Mortar Office,327 Ash Street,Malvern,AR,72104,34.36316332,-92.81149008
U.S. Bank,Malvern Avenue,Full Service Brick and Mortar Office,1875 Malvern Avenue,Hot Springs National Park,AR,71901,34.487262,-93.0337515
U.S. Bank,Maumelle,Full Service Brick and Mortar Office,119 Audubon Drive,Maumelle,AR,72113,34.850952,-92.4041565
U.S. Bank,Mccain Boulevard,Full Service Brick and Mortar Office,3703 Mccain Boulevard,North Little Rock,AR,72116,34.79273815,-92.23091313
U.S. Bank,Mountain Home,Full Service Brick and Mortar Office,100 South Main Street,Mountain Home,AR,72653,36.339624,-92.38527845
U.S. Bank,North Hills,Full Service Brick and Mortar Office,7001 John F. Kennedy Boulevard,North Little Rock,AR,72116,34.819443,-92.236365
U.S. Bank,One Riverfront Place,Full Service Brick and Mortar Office,One Riverfront Place,North Little Rock,AR,72114,34.7546115,-92.269035
U.S. Bank,Park Plaza,Full Service Brick and Mortar Office,6320 West Markham Street,Little Rock,AR,72205,34.75245215,-92.34521181
U.S. Bank,Perryville,Full Service Brick and Mortar Office,115 6th Street,Perryville,AR,72126,35.00818741,-92.80144691
U.S. Bank,Pointer Trail,Full Service Brick and Mortar Office,102 Pointer Trail West,Van Buren,AR,72956,35.45913179,-94.35952594
U.S. Bank,Quitman,Full Service Brick and Mortar Office,6149 Heber Springs Road,Quitman,AR,72131,35.38394339,-92.21645551
U.S. Bank,Rodney Parham,Full Service Brick and Mortar Office,10720 Rodney Parham Road,Little Rock,AR,72212,34.771689,-92.393046
U.S. Bank,Rose City,Full Service Brick and Mortar Office,4311 East Broadway Street,North Little Rock,AR,72117,34.75640383,-92.21732773
U.S. Bank,Sheridan,Full Service Brick and Mortar Office,101 North Oak,Sheridan,AR,72150,34.30699292,-92.40151476
U.S. Bank,Van Buren 6th & Webster,Full Service Brick and Mortar Office,510 Webster,Van Buren,AR,72956,35.434431,-94.3533045
U.S. Bank,West Markham,Full Service Brick and Mortar Office,11402 West Markham,Little Rock,AR,72211,34.75395899,-92.39995939
U.S. Bank,West Pine,Full Service Brick and Mortar Office,2701 Pine Street,Arkadelphia,AR,71923,34.122359,-93.08258559
Southern Bancorp Bank,Airport Rd,Full Service Brick and Mortar Office,206 Airport Rd,Hot Springs National Park,AR,71913,34.49015174,-93.08715214
Southern Bancorp Bank,Ash Street,Full Service Brick and Mortar Office,208 Ash Street,Malvern,AR,72104,34.364124,-92.8129545
Southern Bancorp Bank,Barton,Full Service Brick and Mortar Office,6140 Hwy 49,Barton,AR,72312,34.55514119,-90.77021504
Southern Bancorp Bank,Bismarck,Full Service Brick and Mortar Office,6764 Arkansas 7,Bismarck,AR,71929,34.31707457,-93.17115169
Southern Bancorp Bank,Blytheville,Full Service Brick and Mortar Office,120 South Second Street,Blytheville,AR,72315,35.92670889,-89.90409844
Southern Bancorp Bank,Cherry Street,Full Service Brick and Mortar Office,502 Cherry Street,Helena,AR,72342,34.52714975,-90.58613513
Southern Bancorp Bank,East,Limited Service Facility Office,1040 East Main Street,Blytheville,AR,72315,35.92894215,-89.88061877
Southern Bancorp Bank,El Dorado,Full Service Brick and Mortar Office,1615 West Hillsboro,El Dorado,AR,71730,33.2076035,-92.68352992
Southern Bancorp Bank,Eudora,Full Service Brick and Mortar Office,2943 S Highway 65,Eudora,AR,71640,33.109452,-91.257246
Southern Bancorp Bank,Glenwood,Full Service Brick and Mortar Office,3 Caddo Crossing,Glenwood,AR,71943,34.32322585,-93.55029863
Southern Bancorp Bank,Gosnell,Limited Service Facility Office,599 Airbase Highway,Blytheville,AR,72315,35.9544363,-89.9651373
Southern Bancorp Bank,Gurdon,Full Service Brick and Mortar Office,600 Main Street,Gurdon,AR,71743,33.91663847,-93.14779003
Southern Bancorp Bank,Hamburg,Full Service Brick and Mortar Office,210 North Main,Hamburg,AR,71646,33.22649336,-91.79746096
Southern Bancorp Bank,Hot Springs - East,Full Service Brick and Mortar Office,"2212 Malvern Avenue, Suite 1",Hot Springs National Park,AR,71901,34.47459474,-93.02406922
Southern Bancorp Bank,Hot Springs,Full Service Brick and Mortar Office,4138 Central Avenue,Hot Springs National Park,AR,71913,34.453305,-93.0682395
Southern Bancorp Bank,Little Rock,Limited Service Facility Office,8924 Kanis Road,Little Rock,AR,72205,34.741125,-92.374398
Southern Bancorp Bank,Main Street,Full Service Brick and Mortar Office,128 Main Street,Elaine,AR,72333,34.30812741,-90.85208944
Southern Bancorp Bank,Manila,Limited Service Facility Office,403 Highway 18 South,Manila,AR,72442,35.84916689,-90.04929842
Southern Bancorp Bank,Manila,Full Service Brick and Mortar Office,319 North Baltimore,Manila,AR,72442,35.87704376,-90.16638257
Southern Bancorp Bank,Marvell,Full Service Brick and Mortar Office,911 Highway 49,Marvell,AR,72366,34.56027103,-90.91328051
Southern Bancorp Bank,Mt Ida,Full Service Brick and Mortar Office,506 Highway 270 East,Mount Ida,AR,71957,34.552845,-93.628503
Southern Bancorp Bank,North,Limited Service Facility Office,807 North 6th Street,Blytheville,AR,72315,35.934471,-89.910477
Southern Bancorp Bank,Plaza,Full Service Brick and Mortar Office,425 East Plaza Street,West Helena,AR,72390,34.54390554,-90.64037178
Southern Bancorp Bank,Round,Full Service Brick and Mortar Office,432 N Sebastian,West Helena,AR,72390,34.55138556,-90.64879834
Southern Bancorp Bank,South,Limited Service Facility Office,1012 South Division Street,Blytheville,AR,72315,35.9173599,-89.91872986
Southern Bancorp Bank,Southern Bancorp Bank,Full Service Brick and Mortar Office,601 Main Street,Arkadelphia,AR,71923,34.11952852,-93.05373192
Southern Bancorp Bank,Timberland,Full Service Brick and Mortar Office,2421 North West Avenue,El Dorado,AR,71730,33.23605498,-92.66550625
Southern Bancorp Bank,Trumann,Full Service Brick and Mortar Office,326 Highway 463 North,Trumann,AR,72472,35.67622543,-90.52257434
Southern Bancorp Bank,West Pine,Full Service Brick and Mortar Office,2500 Pine St,Arkadelphia,AR,71923,34.12316645,-93.07938109
The Farmers & Merchants Bank,Bentonville,Full Service Brick and Mortar Office,3210 Sw Regency Pkwy,Bentonville,AR,72712,36.33980487,-94.2118019
The Farmers & Merchants Bank,College,Full Service Brick and Mortar Office,3120 North College Avenue,Fayetteville,AR,72703,36.107757,-94.1445945
The Farmers & Merchants Bank,Crossover,Full Service Brick and Mortar Office,1846 North Crossover Road,Fayetteville,AR,72701,36.087039,-94.1202585
The Farmers & Merchants Bank,Desarc,Full Service Brick and Mortar Office,110 W Third,Des Arc,AR,72040,34.97776267,-91.49521354
The Farmers & Merchants Bank,Drive-In,Limited Service Facility Office,Seventh And Maple Streets,Stuttgart,AR,72160,34.496514,-91.55394
The Farmers & Merchants Bank,East 22nd Street,Limited Service Facility Office,102 East 22nd Street,Stuttgart,AR,72160,34.47929348,-91.55234874
The Farmers & Merchants Bank,Farmington,Full Service Brick and Mortar Office,257 West Main,Farmington,AR,72730,36.039582,-94.2520095
The Farmers & Merchants Bank,Fayetteville,Full Service Brick and Mortar Office,One South Block,Fayetteville,AR,72703,36.05615587,-94.16079222
The Farmers & Merchants Bank,Flippin,Full Service Brick and Mortar Office,203 North 1st Street,Flippin,AR,72634,36.278847,-92.60086608
The Farmers & Merchants Bank,Gassville,Full Service Brick and Mortar Office,701 East Main Street,Gassville,AR,72635,36.286632,-92.483145
The Farmers & Merchants Bank,Gregg,Full Service Brick and Mortar Office,2592 North Gregg Ave,Fayetteville,AR,72703,36.098856,-94.1606865
The Farmers & Merchants Bank,Hazen,Full Service Brick and Mortar Office,110 North Front,Hazen,AR,72064,34.78091051,-91.5797564
The Farmers & Merchants Bank,Jonesboro,Full Service Brick and Mortar Office,400 East Highland Drive,Jonesboro,AR,72401,35.822142,-90.70074
The Farmers & Merchants Bank,Lakeview,Full Service Brick and Mortar Office,Sheffield Road And Highway 178 East,Lakeview,AR,72642,36.370728,-92.5417485
The Farmers & Merchants Bank,Marianna,Full Service Brick and Mortar Office,33 West Main Street,Marianna,AR,72360,34.77347354,-90.75848825
The Farmers & Merchants Bank,Morrilton,Full Service Brick and Mortar Office,1600 North Oak Street,Morrilton,AR,72110,35.172378,-92.74441791
The Farmers & Merchants Bank,Mountain Home,Full Service Brick and Mortar Office,502 South Hickory Street,Mountain Home,AR,72653,36.33606645,-92.38625954
The Farmers & Merchants Bank,Mt Home East,Full Service Brick and Mortar Office,2696 Highway 62 East,Mountain Home,AR,72653,36.358299,-92.340801
The Farmers & Merchants Bank,North Main Street,Limited Service Facility Office,801 North Main Street,Stuttgart,AR,72160,34.50855812,-91.55227046
The Farmers & Merchants Bank,Perryville,Full Service Brick and Mortar Office,813 North Fourche Avenue,Perryville,AR,72126,35.009991,-92.801268
The Farmers & Merchants Bank,Pocahontas East,Limited Service Facility Office,1608 U S Highway 67 South,Pocahontas,AR,72455,36.24862704,-90.95856374
The Farmers & Merchants Bank,Pocahontas Main,Full Service Brick and Mortar Office,1 Bank Plaza,Pocahontas,AR,72455,36.26058528,-90.97086243
The Farmers & Merchants Bank,Prairie Grove,Full Service Brick and Mortar Office,202 Hindman St,Prairie Grove,AR,72753,35.973117,-94.32710398
The Farmers & Merchants Bank,Teller's Window,Limited Service Facility Office,21st And Buerkle Streets,Stuttgart,AR,72160,34.481088,-91.558422
The Farmers & Merchants Bank,The Farmers & Merchants Bank,Full Service Brick and Mortar Office,708 South Main Street,Stuttgart,AR,72160,34.49625928,-91.55274036
The Farmers & Merchants Bank,Train,Limited Service Facility Office,542 West Dickson Street,Fayetteville,AR,72701,36.066699,-94.165686
The Farmers & Merchants Bank,Wedington,Full Service Brick and Mortar Office,3150 Wedington Drive,Fayetteville,AR,72704,36.07841534,-94.20445056
The Farmers & Merchants Bank,West Fork,Full Service Brick and Mortar Office,200 Main Street,West Fork,AR,72774,35.92598291,-94.1855479
The Farmers & Merchants Bank,Whitehead Drive,Full Service Brick and Mortar Office,1960 Whitehead Drive,De Witt,AR,72042,34.27231707,-91.34181725
Bank of England,Bank Of England,Full Service Brick and Mortar Office,123 South Main Street,England,AR,72046,34.54506109,-91.87387325
Bank of England,Bank Of England Mortgage,Limited Service Loan Production Office,"1600 Dave Ward Drive, Suite B",Conway,AR,72034,35.068987,-92.44515561
Bank of England,Bank Of England Mortgage,Limited Service Loan Production Office,"287 S. Broadview, Suite C4",Greenbrier,AR,72058,35.19368206,-92.39153429
Bank of England,Bank Of England Mortgage,Limited Service Loan Production Office,"100 Calella Road, Suite 303",Hot Springs Village,AR,71909,34.672662,-93.0321585
Bank of England,Bank Of England Mortgage,Limited Service Loan Production Office,"2105 Malcolm Avenue, Suite 118",Newport,AR,72112,35.606835,-91.255185
Bank of England,Bank Of England Mortgage,Limited Service Loan Production Office,"216 Olive Street, Suite 108",Texarkana,AR,71854,33.42294,-94.041747
Bank of England,Bank Of England Mortgage,Limited Service Loan Production Office,"500 W. Main Street, Suite 315",Russellville,AR,72801,35.27916082,-93.13755831
Bank of England,Bank Of England Mortgage,Limited Service Loan Production Office,"5813 Kavanaugh Blvd., Suite B",Little Rock,AR,72207,34.7702481,-92.33879314
Bank of England,Bank Of England Mortgage,Limited Service Loan Production Office,"2200 Rodney Parham Road, Suite 101",Little Rock,AR,72212,34.773048,-92.403486
Bank of England,Bank Of England Mortgage,Limited Service Loan Production Office,"5 State House Plaza, Suite 500",Little Rock,AR,72201,34.74814161,-92.27021247
Bank of England,Bank Of England Mortgage,Limited Service Loan Production Office,"11621 Rainwood Road, Suite 1",Little Rock,AR,72212,34.76883452,-92.4021585
Bank of England,Bank Of England Mortgage,Limited Service Loan Production Office,"650 Edgewood Drive, Suite 201",Maumelle,AR,72113,34.863273,-92.405223
Bank of England,Bank Of England Mortgage,Limited Service Loan Production Office,5345 John F Kennedy Blvd,North Little Rock,AR,72116,34.80431174,-92.25328098
Bank of England,Bank Of England Mortgage,Limited Service Loan Production Office,2213 North Reynolds Road,Bryant,AR,72022,34.615836,-92.499282
Bank of England,Bank Of England Mortgage,Limited Service Loan Production Office,"4700 S. Thompson Ave, Suite C-101",Springdale,AR,72764,36.14282103,-94.14420252
Bank of England,Bank Of England Mortgage,Limited Service Loan Production Office,2117 W. Beebe Capps Expressway,Searcy,AR,72143,35.24721228,-91.76482682
Bank of England,Cabot Lpo,Limited Service Loan Production Office,"2391 West Main Street, Suite C",Cabot,AR,72023,34.982937,-92.0450565
Bank of England,Carlisle,Full Service Brick and Mortar Office,101 Park Street,Carlisle,AR,72024,34.780095,-91.747035
Bank of England,East,Full Service Brick and Mortar Office,100 Stuttgart Highway,England,AR,72046,34.546077,-91.9572975
Bank of England,Lonoke Banking Center,Full Service Brick and Mortar Office,1109 North Center Street,Lonoke,AR,72086,34.7934216,-91.89838172
Bank of England,Oak Street Lpo,Limited Service Loan Production Office,"813 Oak Street, Suite 5",Conway,AR,72032,35.091306,-92.4352335
Bank of England,Riverdale,Full Service Brick and Mortar Office,1320 Rebsamen Park Road,Little Rock,AR,72202,34.762842,-92.3103675
Bank of England,Scott Banking Center,Full Service Brick and Mortar Office,11044 Hwy 165,North Little Rock,AR,72117,34.730856,-92.150046
First Arkansas Bank and Trust,Arnold Drive Lr Afb,Full Service Brick and Mortar Office,"Building 795, Arnold Drive",Jacksonville,AR,72076,34.89688415,-92.16459378
First Arkansas Bank and Trust,Austin,Full Service Brick and Mortar Office,1685 East Main,Austin,AR,72007,34.997904,-91.982808
First Arkansas Bank and Trust,Cabot Southside,Full Service Retail Office,121 Bill Foster Memorial Highway,Cabot,AR,72023,34.93809211,-92.00678189
First Arkansas Bank and Trust,Clinton,Full Service Brick and Mortar Office,185 Bone Street,Clinton,AR,72031,35.59743387,-92.46035538
First Arkansas Bank and Trust,Conway,Full Service Brick and Mortar Office,804 Hogan Lane,Conway,AR,72034,35.09019,-92.4972705
First Arkansas Bank and Trust,Cyber,Full Service Cyber Office,600 West Main Street,Jacksonville,AR,72076,34.86715211,-92.11531838
First Arkansas Bank and Trust,Damascus,Full Service Brick and Mortar Office,10 South Broadway,Damascus,AR,72039,35.36676146,-92.40938009
First Arkansas Bank and Trust,First Arkansas Bank And Trust,Full Service Brick and Mortar Office,600 West Main Street,Jacksonville,AR,72076,34.86715211,-92.11531838
First Arkansas Bank and Trust,Gravel Ridge,Full Service Brick and Mortar Office,14917 Hwy 107,Jacksonville,AR,72076,34.872741,-92.196477
First Arkansas Bank and Trust,Greenbrier,Full Service Brick and Mortar Office,11 North Broadview,Greenbrier,AR,72058,35.23496837,-92.38792668
First Arkansas Bank and Trust,Greers Ferry,Full Service Brick and Mortar Office,Greers Ferry Rd,Higden,AR,72067,35.59733393,-92.10940949
First Arkansas Bank and Trust,Guy Community,Full Service Brick and Mortar Office,367 Hwy 25 N #1,Greenbrier,AR,72058,35.3165454,-92.3437767
First Arkansas Bank and Trust,Heber Springs,Full Service Brick and Mortar Office,806 W Main St,Heber Springs,AR,72543,35.49198346,-92.03754988
First Arkansas Bank and Trust,Highway 5,Full Service Brick and Mortar Office,3166 Highway 367 South,Cabot,AR,72023,34.948044,-92.06118
First Arkansas Bank and Trust,Jacksonville Wal-Mart Shopping Cente,Full Service Retail Office,2030 John Harden Drive,Jacksonville,AR,72076,34.8850942,-92.10916601
First Arkansas Bank and Trust,Kiehl,Full Service Brick and Mortar Office,3607 Kiehl Avenue,Sherwood,AR,72120,34.832637,-92.192337
First Arkansas Bank and Trust,North,Full Service Brick and Mortar Office,501 J.P. Wright Loop Road,Jacksonville,AR,72076,34.88441878,-92.10709401
First Arkansas Bank and Trust,Northside,Full Service Brick and Mortar Office,1230 Highway 25b North,Heber Springs,AR,72543,35.50482012,-92.02949323
First Arkansas Bank and Trust,Quitman,Full Service Brick and Mortar Office,5825 Heber Springs Road West,Quitman,AR,72131,35.38471382,-92.20998272
First Arkansas Bank and Trust,Rockwood,Full Service Brick and Mortar Office,105 South Rockwood,Cabot,AR,72023,34.97661,-92.042271
First Arkansas Bank and Trust,Sugar Loaf Office,Full Service Brick and Mortar Office,1500-A Highway 25 By-Pass,Heber Springs,AR,72543,35.49659376,-91.99827586
First Arkansas Bank and Trust,West,Full Service Brick and Mortar Office,2519 W Main St,Jacksonville,AR,72076,34.866666,-92.138823
First Arkansas Bank and Trust,Wildwood,Full Service Brick and Mortar Office,2200 Wildwood Avenue,Sherwood,AR,72120,34.814871,-92.208051
First Community Bank,Bald Knob,Full Service Brick and Mortar Office,159 Highway 167,Bald Knob,AR,72010,35.32496929,-91.56149863
First Community Bank,Bay,Full Service Brick and Mortar Office,306 Elder Street,Bay,AR,72411,35.74274521,-90.56616465
First Community Bank,Cabot,Full Service Brick and Mortar Office,3084 Bill Foster Memorial Highway,Cabot,AR,72023,34.94471628,-92.06037372
First Community Bank,Cabot Prospect,Full Service Brick and Mortar Office,11 Prospect Court,Cabot,AR,72023,34.97661306,-92.02733393
First Community Bank,Caraway,Full Service Brick and Mortar Office,1617 S. Caraway Road,Jonesboro,AR,72401,35.82509043,-90.67780958
First Community Bank,Cave City,Full Service Brick and Mortar Office,102 South Main Street,Cave City,AR,72521,35.941599,-91.548063
First Community Bank,Downtown Jonesboro,Limited Service Loan Production Office,222 E. Washington Avenue,Jonesboro,AR,72401,35.83840653,-90.7032195
First Community Bank,Eagle Mountain,Full Service Brick and Mortar Office,3 Eagle Mountain Blvd.,Batesville,AR,72501,35.76539784,-91.61303888
First Community Bank,First Community Bank,Full Service Brick and Mortar Office,1325 Harrison Street,Batesville,AR,72501,35.76968746,-91.640619
First Community Bank,Highland/Hardy,Full Service Brick and Mortar Office,1 Iroquois Drive,Cherokee Village,AR,72529,36.26064,-91.547433
First Community Bank,Kavanaugh,Full Service Brick and Mortar Office,4900 Kavanaugh Boulevard,Little Rock,AR,72207,34.76829714,-92.32971484
First Community Bank,Little River Bank,Full Service Brick and Mortar Office,202 Greenwood Avenue,Lepanto,AR,72354,35.61241421,-90.33054519
First Community Bank,"Main Street, Batesville",Full Service Brick and Mortar Office,301 E. Main Street,Batesville,AR,72501,35.77123868,-91.65218567
First Community Bank,Mountain Home,Full Service Brick and Mortar Office,310 Hwy 62 E,Mountain Home,AR,72653,36.3411,-92.383119
First Community Bank,Newport,Full Service Brick and Mortar Office,2525 Mclain Street,Newport,AR,72112,35.60801051,-91.25192674
First Community Bank,Saddle Creek,Full Service Brick and Mortar Office,"8201 Ranch Blvd, Suite B4",Little Rock,AR,72223,34.80864157,-92.46502608
First Community Bank,Searcy,Full Service Brick and Mortar Office,800 East Beebe Capps Expressway,Searcy,AR,72143,35.24214113,-91.72904665
First Community Bank,Searcy,Full Service Brick and Mortar Office,2401 West Beebe-Capps Expressway,Searcy,AR,72143,35.24732336,-91.76879161
First Community Bank,Searcy - East,Full Service Brick and Mortar Office,2801 E Race Ave,Searcy,AR,72143,35.250057,-91.703412
First Community Bank,Southside,Full Service Brick and Mortar Office,One Allen Chapel Road,Batesville,AR,72501,35.71701546,-91.61860746
First Community Bank,Southwest Drive,Full Service Brick and Mortar Office,630 Southwest Drive,Jonesboro,AR,72401,35.81464047,-90.71305595
First Community Bank,Washington Avenue,Full Service Brick and Mortar Office,222 East Washington Avenue,Jonesboro,AR,72401,35.83840653,-90.7032195
The Citizens Bank,Airport,Full Service Brick and Mortar Office,805 Batesville Blvd,Batesville,AR,72501,35.73873651,-91.63894769
The Citizens Bank,Arkadelphia,Full Service Brick and Mortar Office,2710 Pine Street,Arkadelphia,AR,71923,34.12261165,-93.0822025
The Citizens Bank,Cave City,Full Service Brick and Mortar Office,201 South Main Street,Cave City,AR,72521,35.940123,-91.5477885
The Citizens Bank,Crossett,Full Service Brick and Mortar Office,123 Main Street,Crossett,AR,71635,33.13439086,-91.96153672
The Citizens Bank,Eagle Mountain,Full Service Brick and Mortar Office,2 Eagle Mountain Blvd,Batesville,AR,72501,35.76411704,-91.61240472
The Citizens Bank,Fayetteville - Wedington,Full Service Brick and Mortar Office,3971 West Wedington Drive,Fayetteville,AR,72704,36.078165,-94.216923
The Citizens Bank,Fayetteville,Full Service Brick and Mortar Office,1676 East Joyce Blvd,Fayetteville,AR,72703,36.12013602,-94.13582403
The Citizens Bank,Hot Springs - Airport,Full Service Brick and Mortar Office,150 Airport Road,Hot Springs National Park,AR,71913,34.49077875,-93.0867076
The Citizens Bank,Hot Springs - Central Avenue,Full Service Brick and Mortar Office,"4429 Central Avenue, Suite C",Hot Springs National Park,AR,71913,34.45154649,-93.07702421
The Citizens Bank,Hot Springs - Higdon Ferry,Full Service Brick and Mortar Office,1698 Higdon Ferry Road,Hot Springs National Park,AR,71913,34.46072912,-93.07646349
The Citizens Bank,Imboden,Full Service Brick and Mortar Office,103 West Third Street,Imboden,AR,72434,36.20213395,-91.1739061
The Citizens Bank,Little Rock - Chenal,Full Service Brick and Mortar Office,"17300 Chenal Parkway, Suite 320",Little Rock,AR,72223,34.763382,-92.4527205
The Citizens Bank,Monticello Division,Full Service Brick and Mortar Office,555 West Gaines Street,Monticello,AR,71655,33.62932651,-91.79827106
The Citizens Bank,Monticello Hwy 425 N,Full Service Brick and Mortar Office,329 Highway 425 North,Monticello,AR,71655,33.63399723,-91.80186379
The Citizens Bank,Motor Bank,Limited Service Facility Office,325 East Boswell Street,Batesville,AR,72501,35.76976423,-91.65071125
The Citizens Bank,Mountain View,Full Service Brick and Mortar Office,411 Sylamore Avenue,Mountain View,AR,72560,35.86859251,-92.10422115
The Citizens Bank,Operations Center Downtown,Limited Service Facility Office,200 South Third Street,Batesville,AR,72501,35.77024186,-91.65153
The Citizens Bank,Pleasant Plains,Full Service Brick and Mortar Office,5736 Blackland Road,Pleasant Plains,AR,72568,35.55764346,-91.62371053
The Citizens Bank,Portland,Full Service Brick and Mortar Office,217 North Main Street,Portland,AR,71663,33.23825343,-91.51157091
The Citizens Bank,Rogers,Full Service Brick and Mortar Office,3350 Pinnacle Hills Parkway,Rogers,AR,72758,36.30441237,-94.18839729
The Citizens Bank,The Citizens Bank,Full Service Brick and Mortar Office,655 Saint Louis Street,Batesville,AR,72501,35.7732085,-91.64084715
