bank,branch,service,street,city,state,zip,latitude,longitude
Wells Fargo Bank,16th & Mission,Full Service Brick and Mortar Office,3027 16th Street,San Francisco,CA,94103,37.7649819,-122.4202714
Wells Fargo Bank,1st & Market,Full Service Brick and Mortar Office,610 1st Avenue,San Diego,CA,92101,32.71165964,-117.1638496
Wells Fargo Bank,22nd-Mission,Full Service Brick and Mortar Office,2595 Mission Street,San Francisco,CA,94110,37.755648,-122.4184095
Wells Fargo Bank,24th Avenue-Irving,Full Service Brick and Mortar Office,2300 Irving Street,San Francisco,CA,94122,37.763568,-122.482737
Wells Fargo Bank,2nd Street Marketplace,Full Service Brick and Mortar Office,1494 East 2nd Street,Beaumont,CA,92223,33.923574,-116.953911
Wells Fargo Bank,30th & Capitol,Full Service Brick and Mortar Office,3001 Capitol Avenue,Sacramento,CA,95816,38.570103,-121.4671455
Wells Fargo Bank,33rd & El Cajon,Full Service Brick and Mortar Office,3299 El Cajon Boulevard,San Diego,CA,92104,32.75518222,-117.1225692
Wells Fargo Bank,4s Ranch,Full Service Brick and Mortar Office,10535 Craftsman Way,San Diego,CA,92127,33.020037,-117.111915
Wells Fargo Bank,4th & Main,Full Service Brick and Mortar Office,101 W 4th Street,Santa Ana,CA,92701,33.748254,-117.8678295
Wells Fargo Bank,725 Irving Street,Full Service Brick and Mortar Office,725 Irving Street,San Francisco,CA,94122,37.76404587,-122.4656916
Wells Fargo Bank,8th & Grand,Full Service Brick and Mortar Office,"750 S Grand Ave, Suite 20",Los Angeles,CA,90017,34.1254741,-117.8725563
Wells Fargo Bank,9000 Sunset,Full Service Brick and Mortar Office,9000 West Sunset Boulevard,West Hollywood,CA,90069,34.09011,-118.387953
Wells Fargo Bank,9th & Montana,Full Service Brick and Mortar Office,900 Montana Avenue,Santa Monica,CA,90403,34.028334,-118.499517
Wells Fargo Bank,Adams & Broadway,Full Service Brick and Mortar Office,141 West Adams Boulevard,Los Angeles,CA,90007,34.02567,-118.269783
Wells Fargo Bank,Agoura Hills,Full Service Brick and Mortar Office,5823 Kanan Road,Agoura Hills,CA,91301,34.15591259,-118.7563734
Wells Fargo Bank,Alameda Marina,Full Service Brick and Mortar Office,821 Marina Village Parkway,Alameda,CA,94501,37.78263288,-122.273242
Wells Fargo Bank,Alamo Plaza,Full Service Brick and Mortar Office,3157 Danville Boulevard,Alamo,CA,94507,37.85175,-122.0338845
Wells Fargo Bank,Albertson' Buellton,Full Service Retail Office,222 East Highway 246,Buellton,CA,93427,34.61106325,-120.1875624
Wells Fargo Bank,Albertson's Riverside,Full Service Retail Office,8938 Trautwein Road,Riverside,CA,92508,33.890202,-117.3229785
Wells Fargo Bank,Albertsons Morro Bay,Full Service Retail Office,730 Quintana Road,Morro Bay,CA,93442,35.36860647,-120.8431838
Wells Fargo Bank,Alhambra Main,Full Service Brick and Mortar Office,701 East Main Street,Alhambra,CA,91801,34.099164,-118.1200185
Wells Fargo Bank,Alhambra Marketplace,Full Service Brick and Mortar Office,726 E Valley Boulevard,Alhambra,CA,91801,34.077924,-118.115595
Wells Fargo Bank,Alicia Parkway Center,Full Service Brick and Mortar Office,25632 Alicia Parkway,Laguna Hills,CA,92653,33.59061199,-117.6998744
Wells Fargo Bank,Aliso Viejo,Full Service Brick and Mortar Office,27250 Alicia Parkway,Laguna Niguel,CA,92677,33.567138,-117.714645
Wells Fargo Bank,Almaden Valley,Full Service Brick and Mortar Office,6465 Almaden Expressway,San Jose,CA,95120,37.220445,-121.8628215
Wells Fargo Bank,Alpine Village,Full Service Brick and Mortar Office,1522 Highlands View Road,Alpine,CA,91901,32.83331457,-116.7512573
Wells Fargo Bank,Ameriage Heights,Full Service Brick and Mortar Office,"1899 West Malvern Avenue, Suite 7c-1",Fullerton,CA,92833,33.87722019,-117.9619427
Wells Fargo Bank,Anaheim Hills,Full Service Brick and Mortar Office,5625 East Santa Ana Canyon Road,Anaheim,CA,92807,33.85195275,-117.7915441
Wells Fargo Bank,Anaheim Main,Full Service Brick and Mortar Office,222 S Harbor Boulevard,Anaheim,CA,92805,33.83239958,-117.9188504
Wells Fargo Bank,Anaheim Stadium,Full Service Brick and Mortar Office,2099 South State College Boulevard,Anaheim,CA,92806,33.796539,-117.889866
Wells Fargo Bank,Antioch,Full Service Brick and Mortar Office,1715 A Street,Antioch,CA,94509,38.00524814,-121.8059742
Wells Fargo Bank,Apple Valley Main,Full Service Brick and Mortar Office,12121 Apple Valley Road,Apple Valley,CA,92308,34.471575,-117.2395935
Wells Fargo Bank,Aptos,Full Service Brick and Mortar Office,7701 Soquel Drive,Aptos,CA,95003,36.980361,-121.9083255
Wells Fargo Bank,Arcadia,Full Service Brick and Mortar Office,1200 South Baldwin Avenue,Arcadia,CA,91007,34.12589958,-118.0548154
Wells Fargo Bank,Arcadia Huntington,Full Service Brick and Mortar Office,444 East Huntington Drive,Arcadia,CA,91006,34.139592,-118.021068
Wells Fargo Bank,Arcata,Full Service Brick and Mortar Office,1103 G Street,Arcata,CA,95521,40.87063467,-124.0851242
Wells Fargo Bank,Arden Fair Mall,Full Service Brick and Mortar Office,1510 Arden Way,Sacramento,CA,95815,38.600334,-121.430205
Wells Fargo Bank,Artesia & Pioneer,Full Service Retail Office,11815 Artesia Boulevard,Artesia,CA,90701,33.874326,-118.080549
Wells Fargo Bank,Atwater,Full Service Brick and Mortar Office,3250 Glendale Boulevard,Los Angeles,CA,90039,34.118199,-118.2602205
Wells Fargo Bank,Atwater Plaza,Full Service Brick and Mortar Office,243 Belleevue Rd,Atwater,CA,95301,37.36053009,-120.5965909
Wells Fargo Bank,Auburn & Linden,Full Service Brick and Mortar Office,8477 Auburn Boulevard,Citrus Heights,CA,95610,38.720367,-121.29084
Wells Fargo Bank,Auburn,Full Service Brick and Mortar Office,338 Elm Avenue,Auburn,CA,95603,38.9034414,-121.0728364
Wells Fargo Bank,Avalon Superior,Full Service Brick and Mortar Office,10211 Avalon Blvd,Los Angeles,CA,90003,33.943383,-118.265208
Wells Fargo Bank,Azusa,Full Service Brick and Mortar Office,700 North Azusa Avenue,Azusa,CA,91702,34.133769,-117.907254
Wells Fargo Bank,Bakersfield Downtown,Full Service Brick and Mortar Office,1300 22nd Street,Bakersfield,CA,93301,35.37911153,-119.0167535
Wells Fargo Bank,Bakersfield-White Lane,Full Service Retail Office,2100 White Lane,Bakersfield,CA,93304,35.31775551,-119.0268855
Wells Fargo Bank,Balboa Mission Center,Full Service Brick and Mortar Office,16844 San Fernando Mission Blvd.,Granada Hills,CA,91344,34.27200954,-118.499616
Wells Fargo Bank,Balboa-Devonshire,Full Service Brick and Mortar Office,10225 Balboa Boulevard,Northridge,CA,91325,34.256034,-118.5023765
Wells Fargo Bank,Balboa-Genesee,Full Service Brick and Mortar Office,5522 Balboa Avenue,San Diego,CA,92111,32.81975008,-117.1810302
Wells Fargo Bank,Baldwin Hills,Full Service Brick and Mortar Office,3649 Stocker Street,Los Angeles,CA,90008,34.0077789,-118.3367952
Wells Fargo Bank,Baldwin Park Marketplace,Full Service Brick and Mortar Office,14460 Merced Avenue,Baldwin Park,CA,91706,34.07250095,-117.9614081
Wells Fargo Bank,Banning,Full Service Brick and Mortar Office,1735 West Ramsey Street,Banning,CA,92220,33.92542751,-116.895627
Wells Fargo Bank,Barrington Place,Full Service Brick and Mortar Office,143 South Barrington Place,Los Angeles,CA,90049,34.06612528,-118.4691168
Wells Fargo Bank,Bayview Hunter's Point,Full Service Brick and Mortar Office,"3801 3rd Street,suite 116",San Francisco,CA,94124,37.741914,-122.387364
Wells Fargo Bank,Beaumont,Full Service Brick and Mortar Office,499 East 6th Street,Beaumont,CA,92223,33.929073,-116.9760825
Wells Fargo Bank,Bel Air Yuba City,Full Service Retail Office,1286 Stabler Lane,Yuba City,CA,95993,39.14735587,-121.6440168
Wells Fargo Bank,Bell,Full Service Brick and Mortar Office,6510 Atlantic Avenue,Bell Gardens,CA,90201,33.97679808,-118.1870872
Wells Fargo Bank,Bellflower,Full Service Brick and Mortar Office,17037 Bellflower Boulevard,Bellflower,CA,90706,33.879186,-118.12554
Wells Fargo Bank,Belmont,Full Service Brick and Mortar Office,1045 Ralston Avenue,Belmont,CA,94002,37.518498,-122.277312
Wells Fargo Bank,Belmont Shore,Full Service Brick and Mortar Office,4601 East 2nd Street,Long Beach,CA,90803,33.76202722,-118.1387546
Wells Fargo Bank,Benicia,Full Service Retail Office,892 Southampton Road,Benicia,CA,94510,38.06775692,-122.1689025
Wells Fargo Bank,Berkeley Main,Full Service Brick and Mortar Office,2144 Shattuck Avenue,Berkeley,CA,94704,37.87038395,-122.2681705
Wells Fargo Bank,Bernardo Plaza,Full Service Retail Office,11986 Bernardo Plaza Drive,San Diego,CA,92128,33.020973,-117.07218
Wells Fargo Bank,Berryessa & Sandstone,Full Service Brick and Mortar Office,2528 Berryessa Road,San Jose,CA,95132,37.38808675,-121.8589019
Wells Fargo Bank,Beverly & Olympic,Full Service Brick and Mortar Office,315 S Beverly Drive Ste 100,Beverly Hills,CA,90212,34.061787,-118.399437
Wells Fargo Bank,Beverly Hills,Full Service Brick and Mortar Office,9600 Santa Monica Boulevard,Beverly Hills,CA,90210,34.069257,-118.405143
Wells Fargo Bank,Beverly Hills Pcs,Limited Service Facility Office,433 North Camden Drive,Beverly Hills,CA,90210,34.06945196,-118.4049452
Wells Fargo Bank,Beverly-Fairfax,Full Service Brick and Mortar Office,137 North Fairfax Avenue,Los Angeles,CA,90036,34.07555893,-118.3614789
Wells Fargo Bank,Bishop Ranch,Full Service Brick and Mortar Office,116 Sunset Drive,San Ramon,CA,94583,37.76225932,-121.9608061
Wells Fargo Bank,Bixby Knolls,Full Service Brick and Mortar Office,4540 Atlantic Ave,Long Beach,CA,90807,33.841422,-118.1839985
Wells Fargo Bank,Black Mountain Road Mira Mesa,Full Service Brick and Mortar Office,10788 Black Mountain Road,San Diego,CA,92126,32.91682415,-117.12486
Wells Fargo Bank,Blackhawk,Full Service Brick and Mortar Office,3402 Camino Tassajara,Danville,CA,94506,37.79892931,-121.9207486
Wells Fargo Bank,Blackstone & Clinton,Full Service Retail Office,2425 North Blackstone Avenue,Fresno,CA,93703,36.772758,-119.792052
Wells Fargo Bank,Blossom Hill,Full Service Brick and Mortar Office,16100 Los Gatos Boulevard,Los Gatos,CA,95032,37.23478271,-121.9633563
Wells Fargo Bank,Blossom Valley Turlock,Full Service Brick and Mortar Office,2844 Geer Rd,Turlock,CA,95382,37.51858014,-120.8487747
Wells Fargo Bank,Bolsa Golden West,Full Service Brick and Mortar Office,6952 Bolsa Avenue,Huntington Beach,CA,92647,33.74439256,-118.0076387
Wells Fargo Bank,Bond Road,Full Service Brick and Mortar Office,8872 Bond Road,Elk Grove,CA,95624,38.423052,-121.372983
Wells Fargo Bank,Bonita,Full Service Brick and Mortar Office,4180 Bonita Road,Bonita,CA,91902,32.65976631,-117.0377711
Wells Fargo Bank,Bonita Point,Full Service Brick and Mortar Office,790 Otay Lakes Road,Chula Vista,CA,91910,32.64544193,-117.0003779
Wells Fargo Bank,Branham & Ross,Full Service Retail Office,1663 Branham Lane,San Jose,CA,95118,37.253106,-121.908294
Wells Fargo Bank,Branham-Snell,Full Service Brick and Mortar Office,191 Branham Lane,San Jose,CA,95136,37.26607149,-121.8339405
Wells Fargo Bank,Brea,Full Service Brick and Mortar Office,230 South State College Boulevard,Brea,CA,92821,33.91276185,-117.8856485
Wells Fargo Bank,Brea Gateway,Full Service Brick and Mortar Office,201 W. Imperial Hwy,Brea,CA,92821,33.91724636,-117.9019832
Wells Fargo Bank,Brentwood,Full Service Brick and Mortar Office,1115 2nd Street,Brentwood,CA,94513,37.936323,-121.697694
Wells Fargo Bank,Brentwood,Full Service Brick and Mortar Office,11836 San Vicente Boulevard,Los Angeles,CA,90049,34.05280429,-118.4691545
Wells Fargo Bank,Broad & Tank Farm,Full Service Retail Office,3900 Broad Street,San Luis Obispo,CA,93401,35.24932454,-120.6435115
Wells Fargo Bank,Broadway & Mccoy,Full Service Brick and Mortar Office,2445 South Broadway,Santa Maria,CA,93454,34.915519,-120.436104
Wells Fargo Bank,Broadway & Palomar,Full Service Brick and Mortar Office,1232 Broadway,Chula Vista,CA,91911,32.60517795,-117.0795222
Wells Fargo Bank,Broadway & Placerville,Full Service Brick and Mortar Office,1244 Broadway,Placerville,CA,95667,38.73126273,-120.7855551
Wells Fargo Bank,Broadway Centre,Full Service Brick and Mortar Office,7080 Broadway,Lemon Grove,CA,91945,32.74260348,-117.0454046
Wells Fargo Bank,Broadway Place,Full Service Brick and Mortar Office,120 Broadway Suite 102,Santa Monica,CA,90401,34.01317304,-118.495906
Wells Fargo Bank,Broadway-Burlingame,Full Service Brick and Mortar Office,1145 Broadway,Burlingame,CA,94010,37.58707134,-122.363869
Wells Fargo Bank,Broadway-Grant Avenue,Full Service Brick and Mortar Office,1160 Grant Avenue,San Francisco,CA,94133,37.79763256,-122.4069204
Wells Fargo Bank,Broadway-Main,Full Service Brick and Mortar Office,1900 Broadway Street,Redwood City,CA,94063,37.487034,-122.225679
Wells Fargo Bank,Broadway/Spring Center,Full Service Brick and Mortar Office,333 South Spring Street,Los Angeles,CA,90013,34.04943086,-118.2477916
Wells Fargo Bank,Brokaw,Full Service Brick and Mortar Office,1068 E. Brokaw Rd,San Jose,CA,95131,37.38268245,-121.8968764
Wells Fargo Bank,Brookhurst-Edinger,Full Service Brick and Mortar Office,16025 Brookhurst Street,Fountain Valley,CA,92708,33.730119,-117.954767
Wells Fargo Bank,Buena Park,Full Service Brick and Mortar Office,7560 Orangethorpe Ave,Buena Park,CA,90621,33.858903,-118.0008685
Wells Fargo Bank,Buenaventura,Full Service Brick and Mortar Office,270 South Mills Road,Ventura,CA,93003,34.26970097,-119.2469402
Wells Fargo Bank,Burbank,Full Service Brick and Mortar Office,900 North San Fernando Boulevard,Burbank,CA,91504,34.186617,-118.316043
Wells Fargo Bank,Burbank Civic Plaza,Full Service Brick and Mortar Office,250 East Olive Avenue,Burbank,CA,91502,34.181424,-118.3080932
Wells Fargo Bank,Burlingame,Full Service Brick and Mortar Office,1435 Burlingame Avenue,Burlingame,CA,94010,37.576962,-122.348898
Wells Fargo Bank,Bush Divisadero,Full Service Brick and Mortar Office,1750 Divisadero Street,San Francisco,CA,94115,37.78592343,-122.4399692
Wells Fargo Bank,Butterfield Station,Full Service Brick and Mortar Office,32881 Us Highway 79,Temecula,CA,92592,33.48464048,-117.0841947
Wells Fargo Bank,Ca Riverside County 1,Limited Service Mobile Office,4800 Magnolia Avenue,Riverside,CA,92506,33.9716802,-117.3845317
Wells Fargo Bank,Ca Riverside County 2,Limited Service Mobile Office,16130 Lasselle Street,Moreno Valley,CA,92551,33.887448,-117.2027025
Wells Fargo Bank,Ca Riverside County 3,Limited Service Mobile Office,2001 3rd Street,Norco,CA,92860,33.9154502,-117.5680212
Wells Fargo Bank,Ca Sacramento County 2,Limited Service Mobile Office,3835 Freeport Boulevard,Sacramento,CA,95822,38.540295,-121.4913735
Wells Fargo Bank,Ca Sacramento County 3,Limited Service Mobile Office,1600 Exposition Boulevard,Sacramento,CA,95815,38.593341,-121.4348175
Wells Fargo Bank,Ca San Diego County 1,Limited Service Mobile Office,8800 Grossmont College Drive,El Cajon,CA,92020,32.816727,-117.007155
Wells Fargo Bank,Cal State Long Beach,Full Service Brick and Mortar Office,1212 N Bellflower Blvd,Long Beach,CA,90815,33.781743,-118.1209185
Wells Fargo Bank,Cal-Oaks Plaza,Full Service Retail Office,41000 California Oaks Road,Murrieta,CA,92562,33.566949,-117.2036565
Wells Fargo Bank,Calabasas,Full Service Brick and Mortar Office,23701 Calabasas Rd,Calabasas,CA,91302,34.15603343,-118.643065
Wells Fargo Bank,Calexico,Full Service Brick and Mortar Office,250 East 4th Street,Calexico,CA,92231,32.66875855,-115.495218
Wells Fargo Bank,Calexico Cyber,Full Service Brick and Mortar Office,200 East 4th Street,Calexico,CA,92231,32.66876047,-115.495929
Wells Fargo Bank,Calvine Plaza,Full Service Retail Office,8377 Elk Grove Florin Road,Sacramento,CA,95829,38.453391,-121.370328
Wells Fargo Bank,Camarillo,Full Service Brick and Mortar Office,487 Carmen Drive,Camarillo,CA,93010,34.220691,-119.0507265
Wells Fargo Bank,Camden,Full Service Brick and Mortar Office,2061 Camden Avenue,San Jose,CA,95124,37.2620647,-121.9341807
Wells Fargo Bank,Camellia City Center,Full Service Brick and Mortar Office,5700 Folsom Boulevard,Sacramento,CA,95819,38.557422,-121.4375625
Wells Fargo Bank,Cameron Park Main,Full Service Brick and Mortar Office,"3440 Palmer Drive, Suite 8a",Shingle Springs,CA,95682,38.66190712,-120.9666539
Wells Fargo Bank,Camino Canada,Full Service Retail Office,13465 Camino Canada,El Cajon,CA,92021,32.82493256,-116.90238
Wells Fargo Bank,Campbell,Full Service Brick and Mortar Office,60 West Hamilton Avenue,Campbell,CA,95008,37.2941545,-121.950918
Wells Fargo Bank,Canoga Park Main,Full Service Brick and Mortar Office,21834 Sherman Way,Canoga Park,CA,91303,34.200666,-118.6041105
Wells Fargo Bank,Canyon Country,Full Service Brick and Mortar Office,19309 Soledad Canyon Road,Canyon Country,CA,91351,34.41581046,-118.4738535
Wells Fargo Bank,Capitol-Mckee,Full Service Brick and Mortar Office,360 North Capitol Avenue,San Jose,CA,95133,37.37161797,-121.8443327
Wells Fargo Bank,Carlsbad Plaza,Full Service Retail Office,2560 El Camino Real,Carlsbad,CA,92008,33.179238,-117.3247425
Wells Fargo Bank,Carmel / Pebble Beach Pcs,Limited Service Facility Office,26611 Carmel Center Place,Carmel,CA,93923,36.53786275,-121.9077427
Wells Fargo Bank,Carmel Creek,Full Service Brick and Mortar Office,3820 Valley Center Drive,San Diego,CA,92130,32.939208,-117.230625
Wells Fargo Bank,Carmel Valley,Full Service Brick and Mortar Office,26600 Carmel Center Place,Carmel,CA,93923,36.53814027,-121.9078534
Wells Fargo Bank,Carmel-By-the-sea,Full Service Brick and Mortar Office,San Carlos And Ocean Street,Carmel By The Sea,CA,93921,36.555075,-121.921839
Wells Fargo Bank,Carmichael,Full Service Brick and Mortar Office,7225 Fair Oaks Boulevard,Carmichael,CA,95608,38.633085,-121.328568
Wells Fargo Bank,Carson,Full Service Brick and Mortar Office,18005 South Avalon Boulevard,Carson,CA,90746,33.8666436,-118.2663234
Wells Fargo Bank,Carson Town Center,Full Service Brick and Mortar Office,506 West Torrance Boulevard,Carson,CA,90745,33.84202852,-118.284867
Wells Fargo Bank,"Castro, The",Full Service Brick and Mortar Office,557 Castro Street,San Francisco,CA,94114,37.75993126,-122.4348841
Wells Fargo Bank,Castro Valley,Full Service Brick and Mortar Office,3500 Castro Valley Boulevard,Castro Valley,CA,94546,37.69560308,-122.0738462
Wells Fargo Bank,Cathedral City,Full Service Retail Office,69255 Ramon Road,Cathedral City,CA,92234,33.814746,-116.4560715
Wells Fargo Bank,Cedar Pointe,Full Service Brick and Mortar Office,7014 North Cedar Avenue,Fresno,CA,93720,36.83868845,-119.7541223
Wells Fargo Bank,Cedars Sinai,Full Service Brick and Mortar Office,8625 West 3rd Street,Los Angeles,CA,90048,34.07365908,-118.3802943
Wells Fargo Bank,Centerpoint Mall,Full Service Brick and Mortar Office,2831 Saviers Rd,Oxnard,CA,93033,34.173612,-119.177973
Wells Fargo Bank,Central Coast Rcbo,Limited Service Facility Office,65 W Alisal St,Salinas,CA,93901,36.673308,-121.656438
Wells Fargo Bank,Central Galt,Full Service Brick and Mortar Office,602 C Street,Galt,CA,95632,38.252691,-121.302414
Wells Fargo Bank,Central Pasadena,Full Service Brick and Mortar Office,1739 East Colorado Boulevard,Pasadena,CA,91106,34.14604152,-118.1149515
Wells Fargo Bank,Central Valley Pb Office,Limited Service Facility Office,"8405 North Fresno Street, Suite 200",Fresno,CA,93720,36.856125,-119.7852345
Wells Fargo Bank,Century City,Full Service Brick and Mortar Office,1800 Avenue Of The Stars,Los Angeles,CA,90067,34.061022,-118.417212
Wells Fargo Bank,Century Park East,Full Service Brick and Mortar Office,1840 Century Park East,Los Angeles,CA,90067,34.0619278,-118.4149909
Wells Fargo Bank,Century Plaza East,Full Service Brick and Mortar Office,1816 East Avenue J,Lancaster,CA,93535,34.68954181,-118.0960115
Wells Fargo Bank,Ceres,Full Service Brick and Mortar Office,2905 4th Street,Ceres,CA,95307,37.59137963,-120.9533689
Wells Fargo Bank,Cerritos,Full Service Brick and Mortar Office,13355 South Street,Cerritos,CA,90703,33.85878157,-118.0471331
Wells Fargo Bank,Cerritos Mall,Full Service Brick and Mortar Office,18712 Gridley Road,Cerritos,CA,90703,33.86106,-118.0903455
Wells Fargo Bank,Chapman & Jamboree,Full Service Brick and Mortar Office,8540 East Chapman Avenue,Orange,CA,92869,33.79255906,-117.7628067
Wells Fargo Bank,Chatsworth,Full Service Brick and Mortar Office,10250 Mason Avenue,Chatsworth,CA,91311,34.256376,-118.578618
Wells Fargo Bank,Cherry Chase Center,Full Service Retail Office,639 South Bernardo Avenue,Sunnyvale,CA,94087,37.372797,-122.05809
Wells Fargo Bank,Chestnut Avenue,Full Service Brick and Mortar Office,10 Chestnut Avenue,South San Francisco,CA,94080,37.655559,-122.431635
Wells Fargo Bank,Chico East,Full Service Brick and Mortar Office,954 East Avenue,Chico,CA,95926,39.76091448,-121.8430935
Wells Fargo Bank,Chico Main,Full Service Brick and Mortar Office,355 Memorial Way,Chico,CA,95926,39.73340278,-121.8375674
Wells Fargo Bank,Chico Skyway,Full Service Retail Office,2485 Notre Dame Boulevard,Chico,CA,95928,39.716658,-121.793265
Wells Fargo Bank,Chino Hills,Full Service Brick and Mortar Office,3289 Grand Avenue,Chino Hills,CA,91709,34.00207667,-117.7336514
Wells Fargo Bank,Chino Hills Parkway,Full Service Retail Office,4200 Chino Hills Parkway,Chino Hills,CA,91709,33.9827485,-117.7130195
Wells Fargo Bank,Chino Main,Full Service Brick and Mortar Office,12455 Central Avenue,Chino,CA,91710,34.02723503,-117.6892382
Wells Fargo Bank,Chula Vista - Third Ave,Full Service Brick and Mortar Office,826 3rd Avenue,Chula Vista,CA,91911,32.62306996,-117.0727822
Wells Fargo Bank,Chula Vista,Full Service Brick and Mortar Office,444 H Street,Chula Vista,CA,91910,32.63271985,-117.0830915
Wells Fargo Bank,Citrus Heights Raley's,Full Service Retail Office,7847 Lichen Drive,Citrus Heights,CA,95621,38.70843694,-121.3127641
Wells Fargo Bank,Citrus Plaza,Full Service Brick and Mortar Office,27480 Lugonia Avenue,Redlands,CA,92374,34.07031373,-117.2060255
Wells Fargo Bank,City Of Commerce,Full Service Brick and Mortar Office,5701 South Eastern Avenue,Los Angeles,CA,90040,33.987294,-118.1639115
Wells Fargo Bank,Civic Center,Full Service Brick and Mortar Office,1266 Market Street,San Francisco,CA,94102,37.778301,-122.416056
Wells Fargo Bank,Claremont,Full Service Brick and Mortar Office,203 Yale Avenue,Claremont,CA,91711,34.09568416,-117.7179378
Wells Fargo Bank,Clayton Valley,Full Service Brick and Mortar Office,4599 Clayton Road,Concord,CA,94521,37.963134,-121.986108
Wells Fargo Bank,Clearlake,Full Service Brick and Mortar Office,14918 Olympic Drive,Clearlake,CA,95422,38.962026,-122.631561
Wells Fargo Bank,Cleveland Avenue,Full Service Brick and Mortar Office,2960 Cleveland Avenue,Santa Rosa,CA,95403,38.465685,-122.7278655
Wells Fargo Bank,Clinton & Brawley,Full Service Brick and Mortar Office,2450 North Brawley Avenue,Fresno,CA,93722,36.773136,-119.8617435
Wells Fargo Bank,Clovis,Full Service Brick and Mortar Office,75 Shaw Avenue,Clovis,CA,93612,36.808884,-119.708262
Wells Fargo Bank,Coldwater Canyon,Full Service Brick and Mortar Office,12900 Ventura Blvd,Studio City,CA,91604,34.14515062,-118.4139876
Wells Fargo Bank,Coleman & Taylor,Full Service Brick and Mortar Office,685 Coleman Ave Suite 10,San Jose,CA,95110,37.34206073,-121.9107396
Wells Fargo Bank,College And Claremont,Full Service Brick and Mortar Office,6310 College Avenue,Oakland,CA,94618,37.85050962,-122.2523432
Wells Fargo Bank,College Center,Full Service Brick and Mortar Office,4690 63rd Street,San Diego,CA,92115,32.76333,-117.0632475
Wells Fargo Bank,College Square,Full Service Brick and Mortar Office,1045 West March Lane,Stockton,CA,95207,37.98994704,-121.3186207
Wells Fargo Bank,Colorado-Orange Grove Blvd,Full Service Brick and Mortar Office,350 West Colorado Boulevard,Pasadena,CA,91105,34.145406,-118.1580525
Wells Fargo Bank,Colusa,Full Service Brick and Mortar Office,501 Market Street,Colusa,CA,95932,39.21406998,-122.0082761
Wells Fargo Bank,Compton Gateway Plaza,Full Service Brick and Mortar Office,1902 W. Rosecrans Ave,Compton,CA,90220,33.90277232,-118.2526191
Wells Fargo Bank,Compton Town Center,Full Service Brick and Mortar Office,1625 South Alameda Street,Compton,CA,90220,33.88027816,-118.2181075
Wells Fargo Bank,Concord,Full Service Brick and Mortar Office,2190 Willow Pass Road,Concord,CA,94520,37.9764,-122.032899
Wells Fargo Bank,Cool,Full Service Brick and Mortar Office,5036 Ellinghouse Dr Suite 130,Cool,CA,95614,38.88532888,-121.0148202
Wells Fargo Bank,Corona,Full Service Brick and Mortar Office,1111 West 6th Street,Corona,CA,92882,33.87731608,-117.584193
Wells Fargo Bank,Corona Del Mar,Full Service Brick and Mortar Office,3600 E Coast Hwy,Corona Del Mar,CA,92625,33.59447252,-117.8681998
Wells Fargo Bank,Coronado,Full Service Brick and Mortar Office,829 Orange Avenue,Coronado,CA,92118,32.68815745,-117.1783964
Wells Fargo Bank,Corte Madera Town Center,Full Service Brick and Mortar Office,427 Corte Madera Town Center,Corte Madera,CA,94925,37.92716718,-122.518043
Wells Fargo Bank,Costa Mesa,Full Service Brick and Mortar Office,301 East 17th Street,Costa Mesa,CA,92627,33.632595,-117.9153
Wells Fargo Bank,Costa Verde Center,Full Service Brick and Mortar Office,8410 Genesee Avenue,San Diego,CA,92122,32.86790227,-117.2140216
Wells Fargo Bank,Coto De Caza,Full Service Brick and Mortar Office,22371 Antonio Parkway,Rancho Santa Margarita,CA,92688,33.63812347,-117.5896072
Wells Fargo Bank,Country Club Centre,Full Service Brick and Mortar Office,2301 Watt Avenue,Sacramento,CA,95825,38.607012,-121.3836615
Wells Fargo Bank,Country Club Village,Full Service Brick and Mortar Office,1141 Country Club Drive,Madera,CA,93638,36.97595983,-120.0741851
Wells Fargo Bank,Covell Market Place,Full Service Retail Office,1431 West Covell Boulevard,Davis,CA,95616,38.561958,-121.7664495
Wells Fargo Bank,Covina,Full Service Brick and Mortar Office,175 East Badillo Street,Covina,CA,91723,34.08626951,-117.8886555
Wells Fargo Bank,Covina Main,Full Service Brick and Mortar Office,925 West Badillo Street,Covina,CA,91722,34.08649444,-117.9089869
Wells Fargo Bank,Cow Hollow,Full Service Brick and Mortar Office,1900 Union Street,San Francisco,CA,94123,37.797903,-122.4308295
Wells Fargo Bank,Crenshaw & Artesia,Full Service Brick and Mortar Office,17405 Crenshaw Blvd Suite A,Torrance,CA,90504,33.872436,-118.3265175
Wells Fargo Bank,Crenshaw-Imperial,Full Service Brick and Mortar Office,11305 South Crenshaw Boulevard,Inglewood,CA,90303,33.931791,-118.326834
Wells Fargo Bank,Crossroads,Full Service Brick and Mortar Office,"2380 Monument Boulevard, Suite G",Pleasant Hill,CA,94523,37.94527259,-122.0566447
Wells Fargo Bank,Crossroads-Freeport Blvd.,Full Service Brick and Mortar Office,5660 Freeport Boulevard,Sacramento,CA,95822,38.522871,-121.4983485
Wells Fargo Bank,Crown Valley & Greenfield,Full Service Brick and Mortar Office,28211 Crown Valley Parkway,Laguna Niguel,CA,92677,33.55306027,-117.6863062
Wells Fargo Bank,Crown Valley,Full Service Brick and Mortar Office,30160 Town Center Drive,Laguna Niguel,CA,92677,33.524595,-117.7145235
Wells Fargo Bank,Crystal Springs Village,Full Service Brick and Mortar Office,112 De Anza Boulevard,San Mateo,CA,94402,37.51993103,-122.3376232
Wells Fargo Bank,Csu Dominguez Hills,Full Service Brick and Mortar Office,"1000 E. Victoria Street, Suite Lsu 251",Carson,CA,90747,33.863877,-118.2557475
Wells Fargo Bank,Csula Cyber Store,Limited Service Facility Office,5154 State University Drive,Los Angeles,CA,90032,34.06226508,-118.1715319
Wells Fargo Bank,Culver City,Full Service Retail Office,11030 Jefferson Boulevard,Culver City,CA,90230,33.996636,-118.3940145
Wells Fargo Bank,Culver City,Full Service Brick and Mortar Office,10011 Washington Boulevard,Culver City,CA,90232,34.021341,-118.3989555
Wells Fargo Bank,Cupertino,Full Service Brick and Mortar Office,10260 South De Anza Boulevard,Cupertino,CA,95014,37.31902622,-122.0321875
Wells Fargo Bank,Daly Street,Full Service Retail Office,2511 Daly Street,Los Angeles,CA,90031,34.07571453,-118.2157211
Wells Fargo Bank,Dana Point,Full Service Brick and Mortar Office,32331 Golden Lantern,Laguna Niguel,CA,92677,33.49421358,-117.6949799
Wells Fargo Bank,Danville,Full Service Brick and Mortar Office,585 San Ramon Valley Boulevard,Danville,CA,94526,37.81517977,-121.9964134
Wells Fargo Bank,Davis,Full Service Brick and Mortar Office,340 F Street,Davis,CA,95616,38.54572348,-121.7405821
Wells Fargo Bank,Deanza & Bollinger,Full Service Brick and Mortar Office,7270 Bollinger Road,San Jose,CA,95129,37.31228744,-122.0316798
Wells Fargo Bank,Del Mar - Highlands,Full Service Brick and Mortar Office,3445 Del Mar Heights Road,San Diego,CA,92130,32.95447119,-117.2321383
Wells Fargo Bank,Delano,Full Service Brick and Mortar Office,920 11th Avenue,Delano,CA,93215,35.77033527,-119.2456263
Wells Fargo Bank,Desert Gateway,Full Service Brick and Mortar Office,34340 Monterey Avenue,Palm Desert,CA,92211,33.799572,-116.387559
Wells Fargo Bank,Desert Hot Springs Towne Center,Full Service Brick and Mortar Office,14000 Palm Drive,Desert Hot Springs,CA,92240,33.94626406,-116.5012753
Wells Fargo Bank,Diablo Avenue,Full Service Retail Office,900 Diablo Avenue,Novato,CA,94947,38.104065,-122.571225
Wells Fargo Bank,Diamond Bar Town Center,Full Service Brick and Mortar Office,1150 South Diamond Bar Boulevard,Diamond Bar,CA,91765,34.00214155,-117.8103558
Wells Fargo Bank,Dimond,Full Service Brick and Mortar Office,3450 Fruitvale Avenue,Oakland,CA,94602,37.80021816,-122.2161784
Wells Fargo Bank,Dixon,Full Service Retail Office,1235 Stratford Avenue,Dixon,CA,95620,38.45797083,-121.839162
Wells Fargo Bank,Dougherty Valley,Full Service Brick and Mortar Office,11020 Bollinger Canyon Road,San Ramon,CA,94582,37.77380569,-121.9227931
Wells Fargo Bank,Douglas & Auburn-Folsom,Full Service Brick and Mortar Office,8475 Auburn Folsom Road,Granite Bay,CA,95746,38.743794,-121.1705733
Wells Fargo Bank,Downey,Full Service Brick and Mortar Office,9323 Firestone Boulevard,Downey,CA,90241,33.93212967,-118.1168482
Wells Fargo Bank,Downieville,Full Service Brick and Mortar Office,326 Main Street,Downieville,CA,95936,39.56042015,-120.8274408
Wells Fargo Bank,Downtown Downey,Full Service Brick and Mortar Office,8345 East Firestone Boulevard,Downey,CA,90241,33.939612,-118.1314305
Wells Fargo Bank,Dublin Hills,Full Service Brick and Mortar Office,4400 Tassajara Road,Dublin,CA,94568,37.70599478,-121.8722247
Wells Fargo Bank,Dublin Plaza,Full Service Brick and Mortar Office,7181 Regional Street,Dublin,CA,94568,37.70466689,-121.9344092
Wells Fargo Bank,E 17th & Mabury,Full Service Brick and Mortar Office,1801 East 17th Street,Santa Ana,CA,92705,33.760206,-117.841968
Wells Fargo Bank,Eagle Glen Center,Full Service Brick and Mortar Office,3877 Bedford Canyon Road,Corona,CA,92883,33.82092986,-117.5235264
Wells Fargo Bank,Eagle Rock,Full Service Brick and Mortar Office,7315 North Figueroa Street,Los Angeles,CA,90041,34.13649922,-118.1882303
Wells Fargo Bank,East Bay Rcbo,Limited Service Facility Office,"1 Kaiser Plaza, Suite 850",Oakland,CA,94612,37.8100811,-122.2644898
Wells Fargo Bank,East Camarillo,Full Service Brick and Mortar Office,5000 Santa Rosa Road,Camarillo,CA,93012,34.21882484,-119.0042905
Wells Fargo Bank,East Chapman,Full Service Retail Office,3325 East Chapman Avenue,Orange,CA,92869,33.789015,-117.817416
Wells Fargo Bank,East Coachella,Full Service Brick and Mortar Office,49201 Grapefruit Blvd,Coachella,CA,92236,33.69219133,-116.1847568
Wells Fargo Bank,East El Cajon,Full Service Brick and Mortar Office,250 North 2nd Street,El Cajon,CA,92021,32.797386,-116.935779
Wells Fargo Bank,East El Camino,Full Service Brick and Mortar Office,107 East El Camino Real,Sunnyvale,CA,94087,37.36747502,-122.0317286
Wells Fargo Bank,East Escondido,Full Service Brick and Mortar Office,1497 East Valley Parkway,Escondido,CA,92027,33.13307271,-117.0613442
Wells Fargo Bank,East Foothill Boulevard,Full Service Retail Office,211 East Foothill Boulevard,Arcadia,CA,91006,34.15109533,-118.0245446
Wells Fargo Bank,East Highland,Full Service Brick and Mortar Office,28920 Greenspot Road,Highland,CA,92346,34.11001217,-117.1729561
Wells Fargo Bank,East Los Angeles,Full Service Brick and Mortar Office,5458 East Whittier Boulevard,Los Angeles,CA,90022,34.01924001,-118.1519144
Wells Fargo Bank,East Palmdale,Full Service Brick and Mortar Office,38003 47th Street East,Palmdale,CA,93552,34.573212,-118.045512
Wells Fargo Bank,East Sonora,Full Service Brick and Mortar Office,13761-B Mono Way,Sonora,CA,95370,37.97588481,-120.3439601
Wells Fargo Bank,East Vista,Full Service Retail Office,1150 E Vista Way,Vista,CA,92084,33.216435,-117.229086
Wells Fargo Bank,East Whittier Boulevard,Full Service Retail Office,14919 East Whittier Boulevard,Whittier,CA,90605,33.94998,-118.0072485
Wells Fargo Bank,Eastlake Village,Full Service Brick and Mortar Office,2265 Otay Lakes Rd,Chula Vista,CA,91915,32.64762598,-116.9672591
Wells Fargo Bank,Eastland Plaza,Full Service Brick and Mortar Office,100 N. Citrus Street,West Covina,CA,91791,34.073271,-117.889479
Wells Fargo Bank,Eastridge,Full Service Brick and Mortar Office,2170 Tully Road,San Jose,CA,95122,37.32728107,-121.818423
Wells Fargo Bank,Edenvale,Full Service Brick and Mortar Office,130 Blossom Hill Road,San Jose,CA,95123,37.251882,-121.806819
Wells Fargo Bank,Edinger & Beach,Full Service Brick and Mortar Office,7902 Edinger Avenue,Huntington Beach,CA,92647,33.73011549,-117.9905715
Wells Fargo Bank,Eighth And Brannan,Full Service Brick and Mortar Office,655 8th St,San Francisco,CA,94107,37.77071594,-122.4046904
Wells Fargo Bank,El Cajon,Full Service Brick and Mortar Office,475 Fletcher Parkway,El Cajon,CA,92020,32.80750583,-116.9670578
Wells Fargo Bank,El Camino & Scott,Full Service Brick and Mortar Office,1995 El Camino Real,Santa Clara,CA,95050,37.35247046,-121.959036
Wells Fargo Bank,El Camino Center,Full Service Brick and Mortar Office,23325 Mulholland Drive,Woodland Hills,CA,91364,34.15638388,-118.6343946
Wells Fargo Bank,El Camino-Wolfe,Full Service Retail Office,785 East El Camino Real,Sunnyvale,CA,94087,37.357164,-122.017851
Wells Fargo Bank,El Centro,Full Service Brick and Mortar Office,1200 West Main Street,El Centro,CA,92243,32.7928565,-115.565949
Wells Fargo Bank,El Cerrito Plaza,Full Service Brick and Mortar Office,9800 San Pablo Avenue,El Cerrito,CA,94530,37.898172,-122.3008605
Wells Fargo Bank,El Dorado Hills Raley's,Full Service Retail Office,3935 Park Drive,El Dorado Hills,CA,95762,38.65562419,-121.0700602
Wells Fargo Bank,El Dorado Hills Town Center,Full Service Brick and Mortar Office,"4355 Town Center Boulevard, Suite 110",El Dorado Hills,CA,95762,38.65060657,-121.0666475
Wells Fargo Bank,El Monte,Full Service Brick and Mortar Office,3603 Peck Road,El Monte,CA,91731,34.07245101,-118.0246094
Wells Fargo Bank,El Norte Plaza,Full Service Retail Office,1000 West El Norte Parkway,Escondido,CA,92026,33.148647,-117.106335
Wells Fargo Bank,El Segundo,Full Service Brick and Mortar Office,309 North Sepulveda Boulevard,El Segundo,CA,90245,33.91994321,-118.3962986
Wells Fargo Bank,Elmwood,Full Service Brick and Mortar Office,2959 College Avenue,Berkeley,CA,94705,37.857285,-122.2527825
Wells Fargo Bank,Embarcadero Center,Full Service Brick and Mortar Office,292 Battery Street,San Francisco,CA,94111,37.79400249,-122.4001013
Wells Fargo Bank,Emeryville,Full Service Brick and Mortar Office,5801 Christie Avenue,Emeryville,CA,94608,37.83908062,-122.2948827
Wells Fargo Bank,Emeryville Bridge Center,Full Service Brick and Mortar Office,1199 40th St,Emeryville,CA,94608,37.83081483,-122.2807452
Wells Fargo Bank,Empire Ranch,Full Service Brick and Mortar Office,25015 Blue Ravine Road,Folsom,CA,95630,38.689029,-121.12362
Wells Fargo Bank,Encinitas,Full Service Brick and Mortar Office,276a North El Camino Real,Encinitas,CA,92024,33.05356155,-117.2616143
Wells Fargo Bank,Encino,Full Service Brick and Mortar Office,15760 Ventura Boulevard,Encino,CA,91436,34.15537779,-118.476815
Wells Fargo Bank,Encino Town Center,Full Service Brick and Mortar Office,17232 Ventura Boulevard,Encino,CA,91316,34.159806,-118.508229
Wells Fargo Bank,Enterprise,Full Service Brick and Mortar Office,830 East Cypress Avenue,Redding,CA,96002,40.57106845,-122.356458
Wells Fargo Bank,Escondido Del Dios,Full Service Brick and Mortar Office,1510 West Valley Parkway,Escondido,CA,92029,33.110622,-117.1039545
Wells Fargo Bank,Escondido Main,Full Service Brick and Mortar Office,145 North Escondido Boulevard,Escondido,CA,92025,33.12102615,-117.084757
Wells Fargo Bank,Eureka,Full Service Brick and Mortar Office,605 G Street,Eureka,CA,95501,40.80099988,-124.1646141
Wells Fargo Bank,Evergreen,Full Service Brick and Mortar Office,3331 San Felipe Road,San Jose,CA,95135,37.31298938,-121.7905786
Wells Fargo Bank,Fair Oaks-San Juan Avenue,Full Service Retail Office,4840 San Juan Avenue,Fair Oaks,CA,95628,38.654253,-121.291038
Wells Fargo Bank,Fairfield,Full Service Brick and Mortar Office,601 Jackson Street,Fairfield,CA,94533,38.24839565,-122.044583
Wells Fargo Bank,Falcon Ridge,Full Service Brick and Mortar Office,15282 Summit Avenue,Fontana,CA,92336,34.15047332,-117.4714534
Wells Fargo Bank,Fallbrook & Victory,Full Service Retail Office,22915 Victory Boulevard,West Hills,CA,91307,34.18648048,-118.6256475
Wells Fargo Bank,Fallbrook,Full Service Brick and Mortar Office,212 South Main St,Fallbrook,CA,92028,33.38087635,-117.2513565
Wells Fargo Bank,Fashion Fair,Full Service Brick and Mortar Office,710 East Shaw Avenue,Fresno,CA,93710,36.80881446,-119.7740776
Wells Fargo Bank,Fashion Valley,Full Service Brick and Mortar Office,1350 Fashion Valley Road,San Diego,CA,92108,32.76740903,-117.1712161
Wells Fargo Bank,Felicita Village,Full Service Brick and Mortar Office,1809 South Centre City Parkway,Escondido,CA,92025,33.101667,-117.075627
Wells Fargo Bank,Festival Center,Full Service Retail Office,8010 East Santa Ana Canyon Road,Anaheim,CA,92808,33.866955,-117.751527
Wells Fargo Bank,Fig Garden Village,Full Service Brick and Mortar Office,790 West Shaw Avenue,Fresno,CA,93704,36.808731,-119.8081935
Wells Fargo Bank,Fillmore-California,Full Service Brick and Mortar Office,2100 Fillmore Street,San Francisco,CA,94115,37.78913181,-122.4338357
Wells Fargo Bank,First And Wren,Full Service Retail Office,777 1st Street,Gilroy,CA,95020,37.01349787,-121.5850352
Wells Fargo Bank,First Interstate Tower,Full Service Brick and Mortar Office,707 Wilshire Boulevard,Los Angeles,CA,90017,34.04882022,-118.2573052
Wells Fargo Bank,Florence & Central,Full Service Brick and Mortar Office,1144 East Florence Avenue,Los Angeles,CA,90001,33.97472851,-118.2549735
Wells Fargo Bank,Floyd Avenue,Full Service Brick and Mortar Office,2509 Mchenry Avenue,Modesto,CA,95350,37.6778096,-120.9941537
Wells Fargo Bank,Folsom,Full Service Brick and Mortar Office,1113 East Bidwell Street,Folsom,CA,95630,38.669085,-121.1544
Wells Fargo Bank,Folsom West,Full Service Brick and Mortar Office,13389 Folsom Boulevard Suite 100,Folsom,CA,95630,38.65372304,-121.1817113
Wells Fargo Bank,Fontana North,Full Service Brick and Mortar Office,14307 Baseline Avenue,Fontana,CA,92336,34.12134653,-117.49293
Wells Fargo Bank,Fontana Superior,Full Service Brick and Mortar Office,16055 Foothill Blvd,Fontana,CA,92335,34.105554,-117.4547835
Wells Fargo Bank,Foothill And Pennsylvania,Full Service Brick and Mortar Office,3200 Foothill Blvd,La Crescenta,CA,91214,34.229403,-118.248993
Wells Fargo Bank,Foothill Crossing,Full Service Brick and Mortar Office,23000 Homestead Road,Cupertino,CA,95014,37.33747135,-122.0668986
Wells Fargo Bank,Foothill Ranch,Full Service Brick and Mortar Office,26622 Towne Centre Drive,Foothill Ranch,CA,92610,33.67661996,-117.6659677
Wells Fargo Bank,Foothill Square,Full Service Brick and Mortar Office,10700 Macarthur Blvd,Oakland,CA,94605,37.74210311,-122.1511388
Wells Fargo Bank,Foothills & Junction,Full Service Brick and Mortar Office,5007 Foothills Boulevard,Roseville,CA,95747,38.76079093,-121.3100353
Wells Fargo Bank,Fortieth Piedmont,Full Service Brick and Mortar Office,151 40th Street,Oakland,CA,94611,37.82585811,-122.2536409
Wells Fargo Bank,Fortuna,Full Service Retail Office,701 South Fortuna Boulevard,Fortuna,CA,95540,40.5846777,-124.1466312
Wells Fargo Bank,Forty-First And Capitola,Full Service Brick and Mortar Office,1700 41st Avenue,Capitola,CA,95010,36.97400465,-121.9648266
Wells Fargo Bank,Foster City,Full Service Brick and Mortar Office,999 East Hillsdale Boulevard,San Mateo,CA,94404,37.55829438,-122.2717895
Wells Fargo Bank,Fountain & N. La Brea,Full Service Retail Office,1233 North La Brea Avenue,Los Angeles,CA,90038,34.093449,-118.3441488
Wells Fargo Bank,Fountain Valley,Full Service Brick and Mortar Office,10060 Slater Avenue,Fountain Valley,CA,92708,33.70892152,-117.953352
Wells Fargo Bank,Fox Hills,Full Service Brick and Mortar Office,5899 Green Valley Circle,Culver City,CA,90230,33.98337242,-118.3903998
Wells Fargo Bank,Freedom,Full Service Brick and Mortar Office,1501 Freedom Boulevard,Watsonville,CA,95076,36.930222,-121.7687265
Wells Fargo Bank,Freemont / Irvington,Full Service Brick and Mortar Office,40982 Fremont Blvd,Fremont,CA,94538,37.53316114,-121.9594565
Wells Fargo Bank,Fremont & Canyon Del Rey,Full Service Retail Office,815 Canyon Del Rey Boulevard,Monterey,CA,93940,36.59784185,-121.8495978
Wells Fargo Bank,Fresno Main,Full Service Brick and Mortar Office,1206 Van Ness Avenue,Fresno,CA,93721,36.737073,-119.7912915
Wells Fargo Bank,Friars Mission Center,Full Service Brick and Mortar Office,5624 Mission Center Rd,San Diego,CA,92108,32.773536,-117.1572525
Wells Fargo Bank,Fruitridge,Full Service Brick and Mortar Office,5695 Stockton Boulevard,Sacramento,CA,95824,38.523294,-121.4410635
Wells Fargo Bank,Fullerton,Full Service Brick and Mortar Office,141 West Bastanchury Road,Fullerton,CA,92835,33.896169,-117.930186
Wells Fargo Bank,Fullerton Yorba Linda,Full Service Retail Office,3330 Yorba Linda Boulevard,Fullerton,CA,92831,33.88819705,-117.8672306
Wells Fargo Bank,Fulton & Masonic,Full Service Retail Office,1750 Fulton Street,San Francisco,CA,94117,37.77591098,-122.4457483
Wells Fargo Bank,"Galleria At Tyler, The",Full Service Brick and Mortar Office,3765 Tyler Street,Riverside,CA,92503,33.91130207,-117.4607306
Wells Fargo Bank,Galt,Full Service Retail Office,10430 Twin Cities Road,Galt,CA,95632,38.289933,-121.307553
Wells Fargo Bank,Garden Grove,Full Service Brick and Mortar Office,12952 Harbor Boulevard,Garden Grove,CA,92840,33.77496945,-117.9190973
Wells Fargo Bank,Garden Grove Promenade,Full Service Brick and Mortar Office,9929 Chapman Avenue,Garden Grove,CA,92841,33.78871494,-117.9597435
Wells Fargo Bank,Garden Grove Valley View,Full Service Brick and Mortar Office,11869 Valley View Street,Garden Grove,CA,92845,33.78964411,-118.0286204
Wells Fargo Bank,Gardena Main,Full Service Brick and Mortar Office,1221 West Redondo Beach Boulevard,Gardena,CA,90247,33.8923565,-118.296946
Wells Fargo Bank,Geary-Arguello,Full Service Brick and Mortar Office,3624 Geary Boulevard,San Francisco,CA,94118,37.7813849,-122.4581264
Wells Fargo Bank,Geary-Nineteenth,Full Service Brick and Mortar Office,5455 Geary Boulevard,San Francisco,CA,94121,37.780083,-122.478057
Wells Fargo Bank,Gilroy,Full Service Brick and Mortar Office,273 East 10th Street,Gilroy,CA,95020,37.001223,-121.56381
Wells Fargo Bank,Glen Cove,Full Service Retail Office,122 Robles Way,Vallejo,CA,94591,38.08348048,-122.2102129
Wells Fargo Bank,Glenbrook,Full Service Brick and Mortar Office,757 Sutton Way,Grass Valley,CA,95945,39.2336546,-121.0348409
Wells Fargo Bank,Glendale,Full Service Brick and Mortar Office,535 North Brand Boulevard,Glendale,CA,91203,34.154307,-118.2554775
Wells Fargo Bank,Glendale Gateway,Full Service Brick and Mortar Office,2933 Los Feliz Boulevard,Los Angeles,CA,90039,34.12571159,-118.2643677
Wells Fargo Bank,Glendale-East Colorado,Full Service Retail Office,1416 East Colorado Street,Glendale,CA,91205,34.142112,-118.233414
Wells Fargo Bank,Glendora,Full Service Brick and Mortar Office,602 West Route 66,Glendora,CA,91740,34.12865654,-117.8735445
Wells Fargo Bank,Glendora Towne Center,Full Service Brick and Mortar Office,625 South Lone Hill Avenue,Glendora,CA,91740,34.12784109,-117.8290412
Wells Fargo Bank,Gold River,Full Service Brick and Mortar Office,2010 Gold Field Drive,Rancho Cordova,CA,95670,38.626668,-121.2639345
Wells Fargo Bank,Golden Valley Ranch,Full Service Brick and Mortar Office,19213 Golden Valley Road,Canyon Country,CA,91387,34.392735,-118.4661855
Wells Fargo Bank,Goleta,Full Service Brick and Mortar Office,195 North Fairview Avenue,Goleta,CA,93117,34.44299448,-119.8307373
Wells Fargo Bank,Granite Bay,Full Service Brick and Mortar Office,8650 Sierra College Boulevard,Roseville,CA,95661,38.741706,-121.228488
Wells Fargo Bank,Grant Park Plaza,Full Service Brick and Mortar Office,"1040 Grant Road, Suite 200",Mountain View,CA,94040,37.379376,-122.0755635
Wells Fargo Bank,Grass Valley,Full Service Brick and Mortar Office,214 Mill Street,Grass Valley,CA,95945,39.21696489,-121.063542
Wells Fargo Bank,Great Mall-Milpitas,Full Service Brick and Mortar Office,140 Great Mall Drive,Milpitas,CA,95035,37.41571719,-121.8944125
Wells Fargo Bank,Greenback & Shupe,Full Service Retail Office,7301 Greenback Lane,Citrus Heights,CA,95621,38.679966,-121.2938775
Wells Fargo Bank,Greenbrae,Full Service Brick and Mortar Office,100 Bon Air Shopping Center,Greenbrae,CA,94904,37.9468798,-122.5256171
Wells Fargo Bank,Greenhaven,Full Service Brick and Mortar Office,7375 Greenhaven Drive,Sacramento,CA,95831,38.491956,-121.521195
Wells Fargo Bank,Grossmont,Full Service Brick and Mortar Office,5500 Grossmont Center Drive,La Mesa,CA,91942,32.778333,-117.0115695
Wells Fargo Bank,Grover Beach,Full Service Brick and Mortar Office,1580 West Grand Avenue,Grover Beach,CA,93433,35.12105553,-120.6119323
Wells Fargo Bank,Hacienda & Valley,Full Service Brick and Mortar Office,121 Hacienda Blvd,Hacienda Heights,CA,91745,34.02133393,-117.957552
Wells Fargo Bank,Half Moon Bay,Full Service Brick and Mortar Office,132 San Mateo Road,Half Moon Bay,CA,94019,37.469061,-122.4329265
Wells Fargo Bank,Hamilton & Bascom,Full Service Brick and Mortar Office,1790 South Bascom Avenue,Campbell,CA,95008,37.2908598,-121.9315879
Wells Fargo Bank,Hamilton Gateway,Full Service Brick and Mortar Office,5820 Nave Drive,Novato,CA,94949,38.064483,-122.534289
Wells Fargo Bank,Hanford,Full Service Brick and Mortar Office,200 West 7th Street,Hanford,CA,93230,36.32636533,-119.6475337
Wells Fargo Bank,Harbor & Mcfadden,Full Service Brick and Mortar Office,3764 W. Mcfadden Avenue,Santa Ana,CA,92704,33.7381501,-117.9190499
Wells Fargo Bank,Harbor & Wilson,Full Service Brick and Mortar Office,"2300 Harbor Boulevard, Suite B",Costa Mesa,CA,92626,33.65660373,-117.9190131
Wells Fargo Bank,Harbor Boulevard,Full Service Brick and Mortar Office,2970 Harbor Boulevard,Costa Mesa,CA,92626,33.67969513,-117.9191925
Wells Fargo Bank,Harbor City,Full Service Brick and Mortar Office,1305 West Sepulveda Boulevard,Torrance,CA,90501,33.81353038,-118.2990843
Wells Fargo Bank,Hastings Ranch,Full Service Brick and Mortar Office,3701 East Foothill Boulevard,Pasadena,CA,91107,34.151184,-118.0726785
Wells Fargo Bank,Hawthorne Main,Full Service Brick and Mortar Office,13545 Hawthorne Boulevard,Hawthorne,CA,90250,33.909156,-118.353105
Wells Fargo Bank,Hawthorne-Artesia,Full Service Brick and Mortar Office,4340 Artesia Boulevard,Torrance,CA,90504,33.87273048,-118.351737
Wells Fargo Bank,Hayward,Full Service Brick and Mortar Office,1172 A Street,Hayward,CA,94541,37.67610188,-122.0807668
Wells Fargo Bank,Healdsburg Main,Full Service Brick and Mortar Office,999 Vine St,Healdsburg,CA,95448,38.60872481,-122.8712429
Wells Fargo Bank,Hegenberger Road-Airport Office Bran,Full Service Brick and Mortar Office,433 Hegenberger Road,Oakland,CA,94621,37.73634508,-122.1971604
Wells Fargo Bank,Hemet,Full Service Brick and Mortar Office,1100 East Florida Avenue,Hemet,CA,92543,33.747858,-116.960499
Wells Fargo Bank,Hercules,Full Service Brick and Mortar Office,1572 Sycamore Avenue,Hercules,CA,94547,38.00871,-122.27013
Wells Fargo Bank,Heritage Marketplace,Full Service Brick and Mortar Office,28007 Scott Road,Murrieta,CA,92563,33.640551,-117.1685385
Wells Fargo Bank,Hermosa Beach,Full Service Brick and Mortar Office,1501 Pacific Coast Highway,Hermosa Beach,CA,90254,33.86579602,-118.3933436
Wells Fargo Bank,Herndon & Milburn,Full Service Brick and Mortar Office,"6780 North Milburn Avenue, Suite 108",Fresno,CA,93722,36.83616412,-119.878853
Wells Fargo Bank,Hesperia,Full Service Brick and Mortar Office,17442 Main Street,Hesperia,CA,92345,34.41877031,-117.2823059
Wells Fargo Bank,Highland & Daycreek,Full Service Brick and Mortar Office,12273 Highland Avenue,Rancho Cucamonga,CA,91739,34.134327,-117.537282
Wells Fargo Bank,Highland & Del Rosa,Full Service Brick and Mortar Office,1565 E Highland Ave,San Bernardino,CA,92404,34.13582938,-117.2533354
Wells Fargo Bank,Highland Arrowhead,Full Service Brick and Mortar Office,296 West Highland Avenue,San Bernardino,CA,92405,34.136289,-117.289413
Wells Fargo Bank,Highland Center,Full Service Retail Office,26529 Highland Avenue,Highland,CA,92346,34.134318,-117.225027
Wells Fargo Bank,Highway 79 Temecula,Full Service Retail Office,31813 Us Highway 79 South,Temecula,CA,92592,33.47976087,-117.1030831
Wells Fargo Bank,Hillcrest,Full Service Retail Office,3365 Deer Valley Road,Antioch,CA,94531,37.98783,-121.783995
Wells Fargo Bank,Hillcrest,Full Service Brick and Mortar Office,1220 Cleveland Avenue,San Diego,CA,92103,32.749578,-117.152991
Wells Fargo Bank,Hillhurst,Full Service Retail Office,2035 Hillhurst Avenue,Los Angeles,CA,90027,34.108767,-118.287446
Wells Fargo Bank,Hillsdale,Full Service Brick and Mortar Office,81 West Hillsdale Boulevard,San Mateo,CA,94403,37.53538622,-122.2997109
Wells Fargo Bank,Hillsdale El Camino,Full Service Brick and Mortar Office,2950 El Camino Real,San Mateo,CA,94403,37.46877584,-122.2114999
Wells Fargo Bank,Hollister,Full Service Retail Office,1700 Airline Highway,Hollister,CA,95023,36.83772736,-121.3900863
Wells Fargo Bank,Hollywood,Full Service Brick and Mortar Office,1600 Vine Street,Los Angeles,CA,90028,34.0999917,-118.3266718
Wells Fargo Bank,Homestead-Kiely,Full Service Brick and Mortar Office,2792 Homestead Road,Santa Clara,CA,95051,37.33905148,-121.9745018
Wells Fargo Bank,Hopyard Hacienda,Full Service Brick and Mortar Office,4767 Hopyard Road,Pleasanton,CA,94588,37.69073041,-121.9035348
Wells Fargo Bank,Horizon Hills,Full Service Brick and Mortar Office,1235 Avocado Avenue,El Cajon,CA,92020,32.778837,-116.957983
Wells Fargo Bank,Huntington Beach,Full Service Brick and Mortar Office,9971 Adams Avenue,Huntington Beach,CA,92646,33.672762,-117.9543105
Wells Fargo Bank,Huntington Duarte,Full Service Brick and Mortar Office,1247 East Huntington Drive,Duarte,CA,91010,34.13975823,-117.9781276
Wells Fargo Bank,Huntington Harbour,Full Service Brick and Mortar Office,16531 Bolsa Chica Street,Huntington Beach,CA,92649,33.72210887,-118.0416273
Wells Fargo Bank,Huntington Park,Full Service Brick and Mortar Office,3508 East Florence Avenue,Huntington Park,CA,90255,33.971382,-118.20312
Wells Fargo Bank,Huntington Park Superior,Full Service Retail Office,6010 Pacific Boulevard,Huntington Park,CA,90255,33.986727,-118.223658
Wells Fargo Bank,Hwy 111 & Washington St,Full Service Retail Office,78630 Us Highway 111,La Quinta,CA,92253,33.71449031,-116.2936971
Wells Fargo Bank,Imperial & Long Beach,Full Service Brick and Mortar Office,3326 Imperial Highway,Lynwood,CA,90262,33.93075155,-118.21014
Wells Fargo Bank,Imperial Beach,Full Service Brick and Mortar Office,685 Saturn Boulevard,San Diego,CA,92154,32.584707,-117.0913455
Wells Fargo Bank,Indio,Full Service Brick and Mortar Office,46020 Monroe Street,Indio,CA,92201,33.713946,-116.2338015
Wells Fargo Bank,Ingleside,Full Service Brick and Mortar Office,1183 Ocean Avenue,San Francisco,CA,94112,37.72361933,-122.4548876
Wells Fargo Bank,Inglewood & Marine,Full Service Retail Office,4001 Inglewood Avenue,Redondo Beach,CA,90278,33.89297812,-118.3613592
Wells Fargo Bank,Inglewood,Full Service Brick and Mortar Office,400 South Market Street,Inglewood,CA,90301,33.95892295,-118.3518473
Wells Fargo Bank,Irvine,Full Service Brick and Mortar Office,14468 Culver Drive,Irvine,CA,92604,33.704379,-117.786303
Wells Fargo Bank,Irvine Corporate,Full Service Brick and Mortar Office,2540 Main Street,Irvine,CA,92614,33.68226655,-117.8433219
Wells Fargo Bank,Isla Vista,Full Service Brick and Mortar Office,6530 Pardall Road,Goleta,CA,93117,34.41312644,-119.8547692
Wells Fargo Bank,Jackson,Full Service Brick and Mortar Office,11 Main Street,Jackson,CA,95642,38.3482563,-120.7735583
Wells Fargo Bank,Kearny Mesa,Full Service Brick and Mortar Office,9360 Clairemont Mesa Boulevard,San Diego,CA,92123,32.831964,-117.127107
Wells Fargo Bank,Kern Valley Plaza,Full Service Retail Office,5610 Lake Isabella Boulevard,Lake Isabella,CA,93240,35.61876392,-118.4770314
Wells Fargo Bank,King City,Full Service Brick and Mortar Office,506 Broadway Street,King City,CA,93930,36.21135782,-121.1294123
Wells Fargo Bank,Kirker Pass,Full Service Retail Office,5431 Clayton Road,Clayton,CA,94517,37.953747,-121.953735
Wells Fargo Bank,Koreatown,Full Service Brick and Mortar Office,3150 Wilshire Boulevard,Los Angeles,CA,90010,34.061166,-118.291194
Wells Fargo Bank,La Canada,Full Service Brick and Mortar Office,555 Foothill Blvd,La Canada Flintridge,CA,91011,34.200738,-118.191087
Wells Fargo Bank,La Cienega & Wilshire,Full Service Brick and Mortar Office,8501 Wilshire Boulevard,Beverly Hills,CA,90211,34.06538366,-118.3768432
Wells Fargo Bank,La Costa,Full Service Brick and Mortar Office,6961 El Camino Real,Carlsbad,CA,92009,33.10388966,-117.2669079
Wells Fargo Bank,La Costa Town Square,Full Service Brick and Mortar Office,3446 Via Mercato,Carlsbad,CA,92009,33.081435,-117.2321505
Wells Fargo Bank,La Crescenta,Full Service Brick and Mortar Office,4000 Foothill Boulevard,La Crescenta,CA,91214,34.240221,-118.26648
Wells Fargo Bank,La Cumbre Plaza,Full Service Brick and Mortar Office,3804 State Street,Santa Barbara,CA,93105,34.4405512,-119.7469577
Wells Fargo Bank,La Habra,Full Service Brick and Mortar Office,1190 South Beach Boulevard,La Habra,CA,90631,33.91801706,-117.9677651
Wells Fargo Bank,La Habra Heights,Full Service Brick and Mortar Office,441 West Whittier Boulevard,La Habra,CA,90631,33.9399,-117.949734
Wells Fargo Bank,La Jolla Village Square,Full Service Retail Office,8657 Villa Lajolla Drive,La Jolla,CA,92037,32.864805,-117.2321505
Wells Fargo Bank,La Jolla/Girard,Full Service Brick and Mortar Office,7714 Girard Avenue,La Jolla,CA,92037,32.84380879,-117.2736215
Wells Fargo Bank,La Mesa Springs,Full Service Retail Office,8011 University Avenue,La Mesa,CA,91942,32.76558,-117.0232695
Wells Fargo Bank,La Mirada,Full Service Brick and Mortar Office,15056 Rosecrans Avenue,La Mirada,CA,90638,33.89840958,-118.0097499
Wells Fargo Bank,La Puente,Full Service Retail Office,1801 North Hacienda Boulevard,La Puente,CA,91744,34.05058661,-117.9439294
Wells Fargo Bank,La Verne,Full Service Brick and Mortar Office,1487 Foothill Boulevard,La Verne,CA,91750,34.11687536,-117.7753022
Wells Fargo Bank,Ladera Heights,Full Service Brick and Mortar Office,5377 West Centinela Avenue,Los Angeles,CA,90045,33.97748042,-118.3738795
Wells Fargo Bank,Ladera Ranch,Full Service Brick and Mortar Office,27702 Crown Valley Parkway,Ladera Ranch,CA,92694,33.56425734,-117.645679
Wells Fargo Bank,Lafayette,Full Service Brick and Mortar Office,3630 Mount Diablo Boulevard,Lafayette,CA,94549,37.891692,-122.1253065
Wells Fargo Bank,Laguna Beach,Full Service Brick and Mortar Office,260 Ocean Avenue,Laguna Beach,CA,92651,33.54320676,-117.7835777
Wells Fargo Bank,Laguna Creek,Full Service Brick and Mortar Office,5120 Laguna Boulevard,Elk Grove,CA,95758,38.42289,-121.4448975
Wells Fargo Bank,Laguna Gateway,Full Service Brick and Mortar Office,9170 West Stockton Boulevard,Elk Grove,CA,95758,38.422989,-121.4021565
Wells Fargo Bank,Laguna Niguel Marketplace,Full Service Retail Office,27320 Alicia Parkway,Laguna Niguel,CA,92677,33.566157,-117.7128
Wells Fargo Bank,Laguna Woods,Full Service Brick and Mortar Office,24301 Paseo De Valencia,Laguna Woods,CA,92637,33.60960863,-117.7127538
Wells Fargo Bank,Lake Elsinore,Full Service Brick and Mortar Office,29265 Central Avenue,Lake Elsinore,CA,92532,33.69440824,-117.3349353
Wells Fargo Bank,Lake Elsinore City Center,Full Service Brick and Mortar Office,31600 Grape Street,Lake Elsinore,CA,92532,33.6599681,-117.2952905
Wells Fargo Bank,Lake Forest,Full Service Brick and Mortar Office,24251 Rockfield Boulevard,Lake Forest,CA,92630,33.61779443,-117.7054651
Wells Fargo Bank,Lake Mission Viejo,Full Service Brick and Mortar Office,27722 Vista Del Lago,Mission Viejo,CA,92692,33.63346663,-117.6467799
Wells Fargo Bank,Lake Murray Village,Full Service Brick and Mortar Office,5610 Lake Murray Boulevard,La Mesa,CA,91942,32.781366,-117.0327195
Wells Fargo Bank,Lakeshore,Full Service Brick and Mortar Office,3348 Lakeshore Avenue,Oakland,CA,94610,37.81086937,-122.2434912
Wells Fargo Bank,Lakeview Center,Full Service Brick and Mortar Office,18529 Yorba Linda Boulevard,Yorba Linda,CA,92886,33.88866445,-117.809856
Wells Fargo Bank,Lakewood,Full Service Brick and Mortar Office,4711 Candlewood Street,Lakewood,CA,90712,33.854112,-118.1377665
Wells Fargo Bank,Lancaster,Full Service Brick and Mortar Office,802 West Lancaster Boulevard,Lancaster,CA,93534,34.697241,-118.1447415
Wells Fargo Bank,Landmark Plaza,Full Service Brick and Mortar Office,8955 Atlanta Avenue,Huntington Beach,CA,92646,33.65780083,-117.9714416
Wells Fargo Bank,Larchmont Village,Full Service Brick and Mortar Office,245 North Larchmont Boulevard,Los Angeles,CA,90004,34.075935,-118.323656
Wells Fargo Bank,Laurel,Full Service Brick and Mortar Office,3431 California Street,San Francisco,CA,94118,37.78674009,-122.4505732
Wells Fargo Bank,Lawrence Expressway,Full Service Brick and Mortar Office,1202 East Arques Avenue,Sunnyvale,CA,94085,37.379727,-121.995441
Wells Fargo Bank,Lemon Grove Plaza,Full Service Retail Office,7090 Broadway,Lemon Grove,CA,91945,32.743629,-117.045225
Wells Fargo Bank,Lemoore,Full Service Brick and Mortar Office,301 West D Street,Lemoore,CA,93245,36.3017207,-119.7851474
Wells Fargo Bank,Limonite & Clay,Full Service Brick and Mortar Office,8330 Limonite Avenue,Riverside,CA,92509,33.97636315,-117.4647819
Wells Fargo Bank,Lincoln & Gilbert,Full Service Brick and Mortar Office,2350 Lincoln Avenue,Anaheim,CA,92801,33.83232057,-117.9655953
Wells Fargo Bank,Lincoln,Full Service Brick and Mortar Office,33 Lincoln Boulevard,Lincoln,CA,95648,38.87047888,-121.29893
Wells Fargo Bank,Lincoln Hills,Full Service Brick and Mortar Office,"1520 Del Webb Boulvevard, Suite C-103",Lincoln,CA,95648,38.87033104,-121.2746018
Wells Fargo Bank,Linda Mar Center,Full Service Retail Office,1380 Linda Mar Shopping Center,Pacifica,CA,94044,37.59485311,-122.5031138
Wells Fargo Bank,Little Saigon,Full Service Brick and Mortar Office,9550 Bolsa Ave,Westminster,CA,92683,33.7447471,-117.9625358
Wells Fargo Bank,Little Tokyo,Full Service Brick and Mortar Office,232 E 2nd Street,Los Angeles,CA,90012,34.04967589,-118.2424243
Wells Fargo Bank,Livermore,Full Service Brick and Mortar Office,235 South K Street,Livermore,CA,94550,37.68036469,-121.7696223
Wells Fargo Bank,Livermore-Las Positas,Full Service Retail Office,4495 1st Street,Livermore,CA,94551,37.69828053,-121.7427814
Wells Fargo Bank,Lockeford,Full Service Brick and Mortar Office,19000 North Highway 88,Lockeford,CA,95237,38.157329,-121.1543033
Wells Fargo Bank,Lodi,Full Service Brick and Mortar Office,120 West Lodi Avenue,Lodi,CA,95240,38.13019298,-121.2749455
Wells Fargo Bank,Lodi Vineyard,Full Service Brick and Mortar Office,701 South Ham Lane,Lodi,CA,95242,38.126034,-121.2890175
Wells Fargo Bank,Lomita,Full Service Brick and Mortar Office,2201 Pacific Coast Highway,Lomita,CA,90717,33.789924,-118.320273
Wells Fargo Bank,Lompoc,Full Service Brick and Mortar Office,645 West Central Avenue,Lompoc,CA,93436,34.66094493,-120.4646328
Wells Fargo Bank,Long Beach & Willow,Full Service Brick and Mortar Office,"251 East Willow Street, Suite A",Long Beach,CA,90806,33.80446452,-118.190232
Wells Fargo Bank,Long Beach Main,Full Service Brick and Mortar Office,111 West Ocean Boulevard,Long Beach,CA,90802,33.76716416,-118.1930541
Wells Fargo Bank,Loomis Main,Full Service Brick and Mortar Office,3680 Taylor Rd,Loomis,CA,95650,38.82060107,-121.1941746
Wells Fargo Bank,Los Altos,Full Service Brick and Mortar Office,100 Main Street,Los Altos,CA,94022,37.380528,-122.115069
Wells Fargo Bank,Los Altos Center,Full Service Brick and Mortar Office,2096 North Bellflower Boulevard,Long Beach,CA,90815,33.794613,-118.1252205
Wells Fargo Bank,Los Angeles Main,Full Service Brick and Mortar Office,333 South Grand Avenue,Los Angeles,CA,90071,34.05275161,-118.2516642
Wells Fargo Bank,Los Banos,Full Service Brick and Mortar Office,461 J Street,Los Banos,CA,93635,37.0607059,-120.8502596
Wells Fargo Bank,Los Gatos,Full Service Brick and Mortar Office,150 North Santa Cruz Avenue,Los Gatos,CA,95030,37.225719,-121.9821165
Wells Fargo Bank,Los Olivos Marketplace,Full Service Brick and Mortar Office,8587 Irvine Center Drive,Irvine,CA,92618,33.64484916,-117.7435396
Wells Fargo Bank,Lsg Los Angeles Pb Office,Limited Service Facility Office,1800 Century Park E.,Los Angeles,CA,90067,34.06237582,-118.4153175
Wells Fargo Bank,Lyon Village,Full Service Brick and Mortar Office,2598 Fair Oaks Boulevard,Sacramento,CA,95825,38.573766,-121.4019135
Wells Fargo Bank,Madera,Full Service Brick and Mortar Office,201 East Yosemite Avenue,Madera,CA,93638,36.96282838,-120.0582369
Wells Fargo Bank,Madison Mall,Full Service Retail Office,8870 Madison Avenue,Fair Oaks,CA,95628,38.66256,-121.228146
Wells Fargo Bank,Madison/Auburn,Full Service Brick and Mortar Office,5051 Auburn Boulevard,Sacramento,CA,95841,38.661435,-121.347036
Wells Fargo Bank,Magnolia Center,Full Service Brick and Mortar Office,6189 Magnolia Avenue,Riverside,CA,92506,33.95818954,-117.3936126
Wells Fargo Bank,Main & Cypress,Full Service Retail Office,660 South Main Street,Fort Bragg,CA,95437,39.43368902,-123.8061325
Wells Fargo Bank,Malibu,Full Service Brick and Mortar Office,23361 Pacific Coast Highway,Malibu,CA,90265,34.03454039,-118.6841941
Wells Fargo Bank,Manhattan & Sepulveda,Full Service Brick and Mortar Office,1129 N Speulveda Blvd,Manhattan Beach,CA,90266,33.887583,-118.396323
Wells Fargo Bank,Manhattan Beach,Full Service Brick and Mortar Office,2910 North Sepulveda Boulevard,Manhattan Beach,CA,90266,33.89687732,-118.3959399
Wells Fargo Bank,Manhattan Beach Pb Office,Limited Service Facility Office,2141 Rosecrans Avenue,El Segundo,CA,90245,33.90202681,-118.3868009
Wells Fargo Bank,Manteca,Full Service Brick and Mortar Office,160 North Main Street,Manteca,CA,95336,37.79892,-121.2162615
Wells Fargo Bank,Marguerite Parkway,Full Service Retail Office,26022 Marguerite Parkway,Mission Viejo,CA,92692,33.58487302,-117.6598357
Wells Fargo Bank,Marin Pb Office,Limited Service Facility Office,770 Tamalpais Drive,Corte Madera,CA,94925,37.926225,-122.5168425
Wells Fargo Bank,Marina,Full Service Brick and Mortar Office,2055 Chestnut Street,San Francisco,CA,94123,37.8006957,-122.4370477
Wells Fargo Bank,Marina Del Rey Main,Full Service Brick and Mortar Office,514 Washington Boulevard,Marina Del Rey,CA,90292,33.98279095,-118.4606509
Wells Fargo Bank,Marina Marketplace,Full Service Brick and Mortar Office,13455 Maxella Avenue,Marina Del Rey,CA,90292,33.98656427,-118.441683
Wells Fargo Bank,Marina Pacifica,Full Service Retail Office,6290 East Pacific Coast Highway,Long Beach,CA,90803,33.7608323,-118.1137639
Wells Fargo Bank,Marina Valley,Full Service Brick and Mortar Office,3160 Vista Del Camino,Marina,CA,93933,36.68701344,-121.7972105
Wells Fargo Bank,Mariners,Full Service Brick and Mortar Office,2750 West Coast Highway,Newport Beach,CA,92663,33.620499,-117.923913
Wells Fargo Bank,Market & Cherry,Full Service Retail Office,5450 Cherry Avenue,Long Beach,CA,90805,33.85525754,-118.168104
Wells Fargo Bank,Market & Church,Full Service Retail Office,2020 Market Street,San Francisco,CA,94114,37.768968,-122.4278325
Wells Fargo Bank,Market & Produce,Full Service Brick and Mortar Office,1244 East 8th Street,Los Angeles,CA,90021,34.03392173,-118.2436895
Wells Fargo Bank,Market Creek,Full Service Brick and Mortar Office,346 Euclid Avenue,San Diego,CA,92114,32.70879819,-117.0850983
Wells Fargo Bank,Market-California,Full Service Brick and Mortar Office,1 California Street,San Francisco,CA,94111,37.793232,-122.397192
Wells Fargo Bank,"Marketplace, The",Full Service Retail Office,298 East Live Oak Avenue,Arcadia,CA,91006,34.107732,-118.0229265
Wells Fargo Bank,Marlow Center,Full Service Retail Office,1799 Marlow Road,Santa Rosa,CA,95401,38.45174046,-122.7513636
Wells Fargo Bank,Marsh Manor,Full Service Brick and Mortar Office,3700 Florence Street,Redwood City,CA,94063,37.47856836,-122.187664
Wells Fargo Bank,Martinez,Full Service Brick and Mortar Office,902 Main Street,Martinez,CA,94553,38.017809,-122.1343965
Wells Fargo Bank,"Matador, The",Limited Service Facility Office,18111 Nordhoff Street,Northridge,CA,91330,34.23556679,-118.5284589
Wells Fargo Bank,Mccarthy Ranch,Full Service Brick and Mortar Office,139 Ranch Drive,Milpitas,CA,95035,37.42834835,-121.9204594
Wells Fargo Bank,Mchenry Avenue,Full Service Brick and Mortar Office,3456 Mchenry Avenue,Modesto,CA,95350,37.68858,-120.994271
Wells Fargo Bank,Meadow Vista,Full Service Brick and Mortar Office,16800 Placer Hills Road,Meadow Vista,CA,95722,38.99581571,-121.0231468
Wells Fargo Bank,Meadowlark Plaza,Full Service Brick and Mortar Office,5355 Warner Avenue,Huntington Beach,CA,92649,33.71544746,-118.036197
Wells Fargo Bank,Melrose & La Brea,Full Service Brick and Mortar Office,625 N. La Brea Avenue,Los Angeles,CA,90036,34.082631,-118.3440885
Wells Fargo Bank,Menifee Countryside Marketplace Bran,Full Service Brick and Mortar Office,30186 Haun Road,Menifee,CA,92584,33.68244826,-117.1754682
Wells Fargo Bank,Menlo Park,Full Service Brick and Mortar Office,735 Santa Cruz Avenue,Menlo Park,CA,94025,37.45121575,-122.1848751
Wells Fargo Bank,Merced,Full Service Brick and Mortar Office,555 West 18th Street,Merced,CA,95340,37.30275376,-120.4835378
Wells Fargo Bank,Meridian Hacienda,Full Service Brick and Mortar Office,3053 Meridian Avenue,San Jose,CA,95124,37.26928946,-121.9052753
Wells Fargo Bank,Meridian San Carlos,Full Service Retail Office,1300 West San Carlos Street,San Jose,CA,95126,37.322946,-121.91193
Wells Fargo Bank,Micron Avenue,Full Service Brick and Mortar Office,9500 Micron Avenue,Sacramento,CA,95827,38.561787,-121.3430085
Wells Fargo Bank,Midtown Palo Alto,Full Service Brick and Mortar Office,2754 Middlefield Road,Palo Alto,CA,94306,37.43283641,-122.1284538
Wells Fargo Bank,Midtown Plaza,Full Service Brick and Mortar Office,"4700 West Pico Boulevard, Suite R",Los Angeles,CA,90019,34.048341,-118.3383315
Wells Fargo Bank,Midtown San Mateo,Full Service Brick and Mortar Office,12 17th Street,San Mateo,CA,94402,37.55245591,-122.3136756
Wells Fargo Bank,Mill Valley,Full Service Brick and Mortar Office,18 Miller Avenue,Mill Valley,CA,94941,37.90579982,-122.5480933
Wells Fargo Bank,Millbrae,Full Service Brick and Mortar Office,490 Broadway,Millbrae,CA,94030,37.602585,-122.3934795
Wells Fargo Bank,Miller Avenue,Full Service Brick and Mortar Office,525 Miller Avenue,Mill Valley,CA,94941,37.894356,-122.5320885
Wells Fargo Bank,Milpas And Mason,Full Service Brick and Mortar Office,101 North Milpas Street,Santa Barbara,CA,93103,34.42272317,-119.6804661
Wells Fargo Bank,Milpitas,Full Service Brick and Mortar Office,1 South Milpitas Boulevard,Milpitas,CA,95035,37.43190116,-121.8994964
Wells Fargo Bank,Ming & Haggin Oak,Full Service Retail Office,9000 Ming Avenue,Bakersfield,CA,93311,35.342289,-119.103885
Wells Fargo Bank,Mira Mesa,Full Service Brick and Mortar Office,10707 Camino Ruiz,San Diego,CA,92126,32.91317581,-117.1437752
Wells Fargo Bank,Miracle Mile,Full Service Brick and Mortar Office,6301 Wilshire Boulevard,Los Angeles,CA,90048,34.063623,-118.3654665
Wells Fargo Bank,Miramar Center,Full Service Brick and Mortar Office,9232 Miramar Road,San Diego,CA,92126,32.894667,-117.1280385
Wells Fargo Bank,Miramonte,Full Service Brick and Mortar Office,809 Cuesta Dr,Mountain View,CA,94040,37.373157,-122.0874165
Wells Fargo Bank,Mission Hills,Full Service Brick and Mortar Office,510 West Washington Street,San Diego,CA,92103,32.74995331,-117.168348
Wells Fargo Bank,Mission Oaks Boulevard,Full Service Retail Office,5275 Mission Oaks Boulevard,Camarillo,CA,93012,34.229781,-118.998558
Wells Fargo Bank,Mission Pacific Beach,Full Service Retail Office,4315 Mission Boulevard,San Diego,CA,92109,32.794326,-117.2542095
Wells Fargo Bank,Mission Plaza,Full Service Retail Office,115 West Main Street,Ventura,CA,93001,34.282359,-119.302308
Wells Fargo Bank,Mission Plaza Daly City,Full Service Retail Office,6843 Mission Street,Daly City,CA,94014,37.697508,-122.46282
Wells Fargo Bank,Mission Viejo,Full Service Brick and Mortar Office,26151 La Paz Road,Mission Viejo,CA,92691,33.601068,-117.6732855
Wells Fargo Bank,Mission Viejo Marketplace,Full Service Brick and Mortar Office,26042 Marguerite Parkway,Mission Viejo,CA,92692,33.58494,-117.658746
Wells Fargo Bank,Mission Village,Full Service Brick and Mortar Office,483 Alessandro Boulevard,Riverside,CA,92508,33.91628726,-117.3227348
Wells Fargo Bank,Mission-Ocean Avenue,Full Service Brick and Mortar Office,4648 Mission Street,San Francisco,CA,94112,37.724058,-122.435676
Wells Fargo Bank,Misson Bay,Full Service Brick and Mortar Office,286 King Street,San Francisco,CA,94107,37.77733641,-122.3930718
Wells Fargo Bank,Modesto Main,Full Service Brick and Mortar Office,1120 K Street,Modesto,CA,95354,37.6427267,-120.9997314
Wells Fargo Bank,Monrovia,Full Service Brick and Mortar Office,535 S Myrtle Ave,Monrovia,CA,91016,34.14609783,-118.0009637
Wells Fargo Bank,Montclair,Full Service Brick and Mortar Office,5120 Moreno Street,Montclair,CA,91763,34.090092,-117.692649
Wells Fargo Bank,Montclair Village,Full Service Brick and Mortar Office,2220 Mountain Boulevard,Oakland,CA,94611,37.823481,-122.207562
Wells Fargo Bank,Montebello,Full Service Brick and Mortar Office,777 West Whittier Boulevard,Montebello,CA,90640,34.009731,-118.108035
Wells Fargo Bank,Montecito,Full Service Brick and Mortar Office,1482 East Valley Road,Santa Barbara,CA,93108,34.43709079,-119.6330464
Wells Fargo Bank,Monterey,Full Service Brick and Mortar Office,399 Alvarado Street,Monterey,CA,93940,36.60015478,-121.8942494
Wells Fargo Bank,Monterey Park,Full Service Brick and Mortar Office,2101 South Atlantic Boulevard,Monterey Park,CA,91754,34.039422,-118.143945
Wells Fargo Bank,Monterey Store,Full Service Brick and Mortar Office,73051 Hwy 111,Palm Desert,CA,92260,33.721083,-116.390754
Wells Fargo Bank,Montrose,Full Service Brick and Mortar Office,2434 Honolulu Avenue,Montrose,CA,91020,34.20686014,-118.2319559
Wells Fargo Bank,Moorpark & Janss,Full Service Brick and Mortar Office,1596 North Moorpark Road,Thousand Oaks,CA,91360,34.19943584,-118.8684852
Wells Fargo Bank,Moorpark,Full Service Brick and Mortar Office,515 W Los Angeles Ave,Moorpark,CA,93021,34.27896452,-118.8881865
Wells Fargo Bank,Morada Ranch,Full Service Retail Office,4255 Morada Lane,Stockton,CA,95212,38.03720338,-121.2602663
Wells Fargo Bank,Moraga,Full Service Brick and Mortar Office,1399 Moraga Way,Moraga,CA,94556,37.8349429,-122.1294016
Wells Fargo Bank,Moreno Marketplace,Full Service Brick and Mortar Office,14395 Moreno Beach Drive,Moreno Valley,CA,92555,33.91187565,-117.1741578
Wells Fargo Bank,Morgan Hill,Full Service Brick and Mortar Office,17590 Monterey Street,Morgan Hill,CA,95037,37.1304,-121.6541205
Wells Fargo Bank,Morgan Hill-Dunne Avenue,Full Service Retail Office,840 East Dunne Avenue,Morgan Hill,CA,95037,37.128681,-121.6365975
Wells Fargo Bank,Mount Diablo Rcbo,Limited Service Facility Office,1200 Concord Ave,Concord,CA,94520,37.98076159,-122.0542574
Wells Fargo Bank,Mountain Gate,Full Service Brick and Mortar Office,330 West Foothill Pkwy,Corona,CA,92882,33.84504083,-117.5743654
Wells Fargo Bank,Mountain Gate Plaza,Full Service Brick and Mortar Office,1200 East Los Angeles Avenue,Simi Valley,CA,93065,34.271253,-118.7763075
Wells Fargo Bank,Mountain View,Full Service Brick and Mortar Office,590 Castro Street,Mountain View,CA,94041,37.388718,-122.082507
Wells Fargo Bank,Movietown Plaza,Full Service Brick and Mortar Office,7326 Santa Monica Boulevard,Los Angeles,CA,90046,34.0906826,-118.3495904
Wells Fargo Bank,Mowry Landing,Full Service Brick and Mortar Office,5191 Mowry Avenue,Fremont,CA,94538,37.53502825,-121.9996534
Wells Fargo Bank,Mt Hermon,Full Service Brick and Mortar Office,100 Kings Village Road,Scotts Valley,CA,95066,37.04599978,-122.0282079
Wells Fargo Bank,Murrieta,Full Service Brick and Mortar Office,41232 Murrieta Hot Springs Road,Murrieta,CA,92562,33.553089,-117.1963575
Wells Fargo Bank,Napa Downtown,Full Service Brick and Mortar Office,901 Main Street,Napa,CA,94559,38.298528,-122.2852095
Wells Fargo Bank,National City - Highland,Full Service Brick and Mortar Office,1199 Highland Avenue,National City,CA,91950,32.674788,-117.0970605
Wells Fargo Bank,Newark,Full Service Brick and Mortar Office,34988 Newark Boulevard,Newark,CA,94560,37.55074155,-122.0496167
Wells Fargo Bank,Newbury Park,Full Service Brick and Mortar Office,925 Broadbeck Drive,Newbury Park,CA,91320,34.19127254,-118.9362395
Wells Fargo Bank,Newcastle,Full Service Brick and Mortar Office,458 Main Street,Newcastle,CA,95658,38.87474792,-121.1337718
Wells Fargo Bank,Newhall Plaza,Full Service Brick and Mortar Office,24180 Lyons Avenue,Newhall,CA,91321,34.37868722,-118.5577226
Wells Fargo Bank,Newland Center,Full Service Brick and Mortar Office,19840 Beach Boulevard,Huntington Beach,CA,92648,33.6740158,-117.9884555
Wells Fargo Bank,Newport Beach,Full Service Brick and Mortar Office,5 Corporate Plaza,Newport Beach,CA,92660,33.606216,-117.87588
Wells Fargo Bank,Newport Coast,Full Service Brick and Mortar Office,21103 Newport Coast Drive,Newport Coast,CA,92657,33.60840365,-117.8260972
Wells Fargo Bank,Nipomo,Full Service Brick and Mortar Office,555 W Tefft Street,Nipomo,CA,93444,35.03576094,-120.4865146
Wells Fargo Bank,Noe Valley,Full Service Brick and Mortar Office,4045 24th Street,San Francisco,CA,94114,37.75134639,-122.4328578
Wells Fargo Bank,Noho Commons,Full Service Brick and Mortar Office,5300 Lankershim Boulevard,North Hollywood,CA,91601,34.16715,-118.375713
Wells Fargo Bank,Norco,Full Service Brick and Mortar Office,140 Hidden Valley Parkway,Norco,CA,92860,33.896637,-117.5624955
Wells Fargo Bank,Nordhoff,Full Service Brick and Mortar Office,9036 Reseda Boulevard,Northridge,CA,91324,34.235199,-118.5356565
Wells Fargo Bank,Noriega & 32nd,Full Service Brick and Mortar Office,2454 Noriega Street,San Francisco,CA,94122,37.753893,-122.4901845
Wells Fargo Bank,North Alhambra,Full Service Brick and Mortar Office,1910 West Main Street,Alhambra,CA,91801,34.09147548,-118.1444175
Wells Fargo Bank,North Auburn,Full Service Brick and Mortar Office,2995 Grass Valley Hwy,Auburn,CA,95603,38.9416398,-121.0970213
Wells Fargo Bank,North Berkeley,Full Service Brick and Mortar Office,1800 Solano Avenue,Berkeley,CA,94707,37.891044,-122.2800975
Wells Fargo Bank,North El Camino Real,Full Service Retail Office,1048 North El Camino Real,Encinitas,CA,92024,33.066729,-117.2662785
Wells Fargo Bank,North First Street,Full Service Brick and Mortar Office,1705 North 1st Street,San Jose,CA,95112,37.36570781,-121.9127647
Wells Fargo Bank,North Florin,Full Service Brick and Mortar Office,7050 Stockton Boulevard,Sacramento,CA,95823,38.498769,-121.4309745
Wells Fargo Bank,North Highlands,Full Service Retail Office,7477 Watt Avenue,North Highlands,CA,95660,38.702898,-121.3840755
Wells Fargo Bank,North Hollywood,Full Service Retail Office,10900 Magnolia Boulevard,North Hollywood,CA,91601,34.16482039,-118.3682298
Wells Fargo Bank,North Marina,Full Service Brick and Mortar Office,13400 West Washington Boulevard,Marina Del Rey,CA,90292,33.991371,-118.4447565
Wells Fargo Bank,North Natomas,Full Service Brick and Mortar Office,2261 Del Paso Road,Sacramento,CA,95835,38.656377,-121.510638
Wells Fargo Bank,North Pasadena,Full Service Brick and Mortar Office,1830 East Washington Boulevard,Pasadena,CA,91104,34.16911552,-118.1126925
Wells Fargo Bank,North Point Center,Full Service Retail Office,350 Bay Street,San Francisco,CA,94133,37.80571495,-122.4131341
Wells Fargo Bank,North Roseville,Full Service Brick and Mortar Office,781 Pleasant Grove Blvd Suite 100,Roseville,CA,95678,38.78979431,-121.2812736
Wells Fargo Bank,North Sacramento,Full Service Brick and Mortar Office,1501 Del Paso Boulevard,Sacramento,CA,95815,38.606742,-121.458744
Wells Fargo Bank,North Salinas,Full Service Retail Office,1546 North Main Street,Salinas,CA,93906,36.712782,-121.652658
Wells Fargo Bank,North Stockton,Full Service Brick and Mortar Office,7650 Pacific Avenue,Stockton,CA,95207,38.0189452,-121.3235231
Wells Fargo Bank,North Valencia,Full Service Brick and Mortar Office,27710 Mcbean Pkwy,Valencia,CA,91354,34.4449942,-118.5533033
Wells Fargo Bank,North Victorville,Full Service Brick and Mortar Office,15368 Roy Rogers Drive,Victorville,CA,92394,34.52148792,-117.3284165
Wells Fargo Bank,Northeast Bakersfield,Full Service Brick and Mortar Office,3743 Columbus Street,Bakersfield,CA,93306,35.400096,-118.950777
Wells Fargo Bank,Northgate,Full Service Brick and Mortar Office,600 Las Gallinas Avenue,San Rafael,CA,94903,38.0060245,-122.5424176
Wells Fargo Bank,Northridge,Full Service Brick and Mortar Office,8812 Corbin Avenue,Northridge,CA,91324,34.230294,-118.5622615
Wells Fargo Bank,Northridge Shopping Center,Full Service Brick and Mortar Office,820 Northridge Shopping Center,Salinas,CA,93906,36.721269,-121.6566585
Wells Fargo Bank,Norwalk,Full Service Brick and Mortar Office,11732 Firestone Boulevard,Norwalk,CA,90650,33.91326236,-118.0830788
Wells Fargo Bank,Novato,Full Service Brick and Mortar Office,1590 Grant Avenue,Novato,CA,94945,38.10890105,-122.5767358
Wells Fargo Bank,Oak Grove Plaza,Full Service Brick and Mortar Office,775 Oak Grove Road,Concord,CA,94518,37.93746257,-122.0239332
Wells Fargo Bank,Oak Hills Center,Full Service Retail Office,660 Baily Road,Pittsburg,CA,94565,38.01585537,-121.941993
Wells Fargo Bank,Oak Park,Full Service Brick and Mortar Office,604 Lindero Canyon Road,Oak Park,CA,91377,34.18145396,-118.7864093
Wells Fargo Bank,Oakbrook,Full Service Brick and Mortar Office,1760 East Avenida De Los Arboles,Thousand Oaks,CA,91362,34.21129612,-118.8456333
Wells Fargo Bank,Oakdale,Full Service Brick and Mortar Office,105 West F Street,Oakdale,CA,95361,37.76545618,-120.8498426
Wells Fargo Bank,Oakhurst,Full Service Retail Office,40044 Highway 49,Oakhurst,CA,93644,37.33199631,-119.6578573
Wells Fargo Bank,Oakland Chinatown,Full Service Brick and Mortar Office,901 Franklin St,Oakland,CA,94607,37.80047048,-122.2721293
Wells Fargo Bank,Oakland City Center,Full Service Brick and Mortar Office,1221 Broadway,Oakland,CA,94612,37.803474,-122.272326
Wells Fargo Bank,Oakland Main,Full Service Brick and Mortar Office,2040 Franklin Street,Oakland,CA,94612,37.80910944,-122.2668164
Wells Fargo Bank,Oakmont,Full Service Brick and Mortar Office,6585 Oakmont Drive,Santa Rosa,CA,95409,38.44162258,-122.6046589
Wells Fargo Bank,Oakridge-Almaden,Full Service Brick and Mortar Office,1006 Blossom Hill Road,San Jose,CA,95123,37.25030847,-121.868649
Wells Fargo Bank,Ocean Park,Full Service Brick and Mortar Office,170 Pier Avenue,Santa Monica,CA,90405,33.997851,-118.480158
Wells Fargo Bank,Oceanside College Boulevard,Full Service Retail Office,845 College Boulevard,Oceanside,CA,92057,33.241023,-117.2945205
Wells Fargo Bank,Oceanside/Hwy 78,Full Service Brick and Mortar Office,2701 Vista Way,Oceanside,CA,92054,33.182127,-117.328212
Wells Fargo Bank,Oceanview Plaza,Full Service Brick and Mortar Office,638 Camino De Los Mares,San Clemente,CA,92673,33.4596385,-117.6522978
Wells Fargo Bank,Oildale,Full Service Brick and Mortar Office,1309 North Chester Avenue,Bakersfield,CA,93308,35.418645,-119.021277
Wells Fargo Bank,Ojai,Full Service Brick and Mortar Office,202 East Matilija Street,Ojai,CA,93023,34.44881265,-119.245669
Wells Fargo Bank,Old Ranch Town Center,Full Service Brick and Mortar Office,"12310 Seal Beach Blvd.,",Seal Beach,CA,90740,33.78369343,-118.0718449
Wells Fargo Bank,Olympic & Barrington,Full Service Retail Office,11727 West Olympic Boulevard,Los Angeles,CA,90064,34.03386435,-118.4485092
Wells Fargo Bank,Olympic & Figueroa,Full Service Brick and Mortar Office,717 West Olympic Blvd,Los Angeles,CA,90015,34.04485724,-118.2636358
Wells Fargo Bank,Olympic & Purdue,Full Service Brick and Mortar Office,11835 W Olympic Blvd,Los Angeles,CA,90064,34.033374,-118.451781
Wells Fargo Bank,Ontario,Full Service Brick and Mortar Office,240 North Euclid Avenue,Ontario,CA,91762,34.06556408,-117.6507973
Wells Fargo Bank,Ontario Mills,Full Service Brick and Mortar Office,4240 East 4th Street,Ontario,CA,91764,34.07715755,-117.5605947
Wells Fargo Bank,Ontario Pb - Satellite Office,Limited Service Facility Office,"4141 Inland Empire Boulevard, 3rd Floor",Ontario,CA,91764,34.06884056,-117.5670231
Wells Fargo Bank,Orange County Airport,Full Service Brick and Mortar Office,4590 Macarthur Boulevard,Newport Beach,CA,92660,33.668622,-117.863613
Wells Fargo Bank,Orange County Pb Office,Limited Service Facility Office,5 Park Plaza,Irvine,CA,92614,33.67671897,-117.8372826
Wells Fargo Bank,Orange County Rcbo,Limited Service Facility Office,"2030 Main Street, 9th Floor",Irvine,CA,92614,33.683076,-117.853182
Wells Fargo Bank,Orange Plaza,Full Service Brick and Mortar Office,101 East Chapman Avenue,Orange,CA,92866,33.78790848,-117.8524845
Wells Fargo Bank,Orange/North Tustin,Full Service Brick and Mortar Office,2535 North Tustin Street,Orange,CA,92865,33.830631,-117.836162
Wells Fargo Bank,Orangethorpe Business Center,Full Service Brick and Mortar Office,1661 North Raymond Avenue,Anaheim,CA,92801,33.858207,-117.906787
Wells Fargo Bank,Orangevale,Full Service Brick and Mortar Office,9407 Madison Avenue,Orangevale,CA,95662,38.673279,-121.2015735
Wells Fargo Bank,Orchard Hills,Full Service Brick and Mortar Office,3951 Portola Pkwy,Irvine,CA,92602,33.73304135,-117.7609006
Wells Fargo Bank,Orchards At Walnut Creek,Full Service Brick and Mortar Office,2880 Ygnacio Valley Rd,Walnut Creek,CA,94598,37.92691398,-122.0162624
Wells Fargo Bank,Orinda,Full Service Brick and Mortar Office,80 Moraga Way,Orinda,CA,94563,37.87780525,-122.1803623
Wells Fargo Bank,Oroville,Full Service Retail Office,2325 Myers Street,Oroville,CA,95966,39.507192,-121.549302
Wells Fargo Bank,Otay Ranch,Full Service Brick and Mortar Office,2160 Birch Road,Chula Vista,CA,91915,32.6215925,-116.9612019
Wells Fargo Bank,Oxnard,Full Service Brick and Mortar Office,460 East Esplanade Drive,Oxnard,CA,93036,34.22925,-119.1725455
Wells Fargo Bank,Oxnard South Ventura,Full Service Retail Office,450 South Ventura Road,Oxnard,CA,93030,34.198389,-119.193156
Wells Fargo Bank,Pacific Beach,Full Service Brick and Mortar Office,1302 Garnet Avenue,San Diego,CA,92109,32.79865248,-117.2460708
Wells Fargo Bank,Pacific Grove,Full Service Brick and Mortar Office,1160 Forest Avenue,Pacific Grove,CA,93950,36.60625347,-121.9218039
Wells Fargo Bank,Pacific Highlands Ranch,Full Service Brick and Mortar Office,13490 Pacific Highlands Ranch Parway,San Diego,CA,92130,32.96260082,-117.1902492
Wells Fargo Bank,Pacific Palisades,Full Service Brick and Mortar Office,15240 W Sunset Blvd,Pacific Palisades,CA,90272,34.04663095,-118.5249519
Wells Fargo Bank,Pacific Station,Full Service Brick and Mortar Office,"687 S Coast Highway 101, Suite 151",Encinitas,CA,92024,33.043923,-117.2930715
Wells Fargo Bank,Pacoima,Full Service Brick and Mortar Office,12727 Van Nuys Boulevard,Pacoima,CA,91331,34.27541399,-118.4093774
Wells Fargo Bank,Pajaro Valley,Full Service Brick and Mortar Office,326 Main Street,Watsonville,CA,95076,36.909684,-121.755861
Wells Fargo Bank,Pala,Full Service Brick and Mortar Office,12196 East Pala Mission Road,Pala,CA,92059,33.367086,-117.0692235
Wells Fargo Bank,Palm Desert,Full Service Brick and Mortar Office,74105 El Paseo,Palm Desert,CA,92260,33.719652,-116.371845
Wells Fargo Bank,Palm Desert Pb Office,Limited Service Facility Office,74199 El Paseo,Palm Desert,CA,92260,33.72081715,-116.3707715
Wells Fargo Bank,Palm Promenade,Full Service Brick and Mortar Office,640 Dennery Road,San Diego,CA,92154,32.58175999,-117.0328314
Wells Fargo Bank,Palm Springs,Full Service Brick and Mortar Office,543 South Palm Canyon Drive,Palm Springs,CA,92264,33.81505578,-116.5464868
Wells Fargo Bank,Palmdale,Full Service Brick and Mortar Office,1006 East Palmdale Boulevard,Palmdale,CA,93550,34.579152,-118.1113875
Wells Fargo Bank,Palmdale Trade & Commerce,Full Service Brick and Mortar Office,"39838 10th Street West, Suite A",Palmdale,CA,93551,34.60679397,-118.1476127
Wells Fargo Bank,Palms,Full Service Brick and Mortar Office,11116 Palms Blvd,Los Angeles,CA,90034,34.0196567,-118.4213128
Wells Fargo Bank,Palo Alto,Full Service Brick and Mortar Office,400 Hamilton Avenue,Palo Alto,CA,94301,37.446597,-122.1584535
Wells Fargo Bank,Palo Alto Pcs,Limited Service Facility Office,301 University Avenue,Palo Alto,CA,94301,37.446174,-122.1617295
Wells Fargo Bank,Palomar Place,Full Service Brick and Mortar Office,961 Palomar Airport Road,Carlsbad,CA,92011,33.12185222,-117.3150538
Wells Fargo Bank,Palomar Vista,Full Service Brick and Mortar Office,3211 Business Park Drive,Vista,CA,92081,33.133815,-117.229311
Wells Fargo Bank,Palos Verdes,Full Service Brick and Mortar Office,27440 Hawthorne Boulevard,Palos Verdes Peninsula,CA,90274,33.77654705,-118.3779573
Wells Fargo Bank,Panorama City,Full Service Brick and Mortar Office,8548 Van Nuys Boulevard,Panorama City,CA,91402,34.22598654,-118.4491052
Wells Fargo Bank,Paradise,Full Service Brick and Mortar Office,6930 Skyway Boulevard,Paradise,CA,95969,39.76414174,-121.6193724
Wells Fargo Bank,Paramount,Full Service Brick and Mortar Office,"16230 Paramount Boulevard, Suite D",Paramount,CA,90723,33.8868777,-118.1599527
Wells Fargo Bank,Park West Place,Full Service Brick and Mortar Office,10614 Trinity Parkway,Stockton,CA,95219,38.05313281,-121.3751795
Wells Fargo Bank,Parktown Plaza,Full Service Brick and Mortar Office,1715 Landess Avenue,Milpitas,CA,95035,37.41684928,-121.8729488
Wells Fargo Bank,Pasadena-Lake,Full Service Brick and Mortar Office,82 South Lake Avenue,Pasadena,CA,91101,34.144272,-118.131867
Wells Fargo Bank,Paseo Padre,Full Service Brick and Mortar Office,39265 Paseo Padre Parkway,Fremont,CA,94538,37.55272631,-121.9795555
Wells Fargo Bank,Paseo Real Plaza,Full Service Retail Office,6951 El Camino Real,Carlsbad,CA,92009,33.103395,-117.268569
Wells Fargo Bank,Paso Robles,Full Service Brick and Mortar Office,546 Spring Street,Paso Robles,CA,93446,35.6198661,-120.6907969
Wells Fargo Bank,Patterson Save Mart,Full Service Retail Office,1035 Sperry Ave,Patterson,CA,95363,37.46446957,-121.1420706
Wells Fargo Bank,Pavilion At La Quinta,Full Service Brick and Mortar Office,79234 Highway 111,La Quinta,CA,92253,33.708123,-116.282124
Wells Fargo Bank,Pch & Anza,Full Service Brick and Mortar Office,4135 Pacific Coast Highway,Torrance,CA,90505,33.807924,-118.3574925
Wells Fargo Bank,Penn Valley,Full Service Brick and Mortar Office,17446 Penn Valley Dr.,Penn Valley,CA,95946,39.19728516,-121.1768672
Wells Fargo Bank,Perris,Full Service Brick and Mortar Office,2560 North Perris Boulevard,Perris,CA,92571,33.816213,-117.226227
Wells Fargo Bank,Petaluma,Full Service Brick and Mortar Office,125 Western Avenue,Petaluma,CA,94952,38.233314,-122.64174
Wells Fargo Bank,Petaluma Valley,Full Service Brick and Mortar Office,800 North Mcdowell Boulevard,Petaluma,CA,94954,38.2616532,-122.6478353
Wells Fargo Bank,Petaluma Washington Square,Full Service Brick and Mortar Office,333 South Mcdowell Boulevard,Petaluma,CA,94954,38.24769786,-122.6231092
Wells Fargo Bank,Piazza Carmel,Full Service Retail Office,3850 Valley Centre Drive,San Diego,CA,92130,32.938983,-117.231147
Wells Fargo Bank,Pico Rivera,Full Service Brick and Mortar Office,8737 Washington Boulevard,Pico Rivera,CA,90660,33.985116,-118.099674
Wells Fargo Bank,Pico-Swall Drive,Full Service Brick and Mortar Office,8901 West Pico Boulevard,Los Angeles,CA,90035,34.055397,-118.385829
Wells Fargo Bank,Piedmont Highland,Full Service Brick and Mortar Office,344 Highland Avenue,Oakland,CA,94611,37.82448781,-122.2313257
Wells Fargo Bank,Pinole Vista,Full Service Brick and Mortar Office,1374 Fitzgerald Drive,Pinole,CA,94564,37.98764857,-122.311507
Wells Fargo Bank,Pittsburg,Full Service Brick and Mortar Office,3001 Railroad Avenue,Pittsburg,CA,94565,38.00774295,-121.8927713
Wells Fargo Bank,Placentia,Full Service Brick and Mortar Office,111 East Yorba Linda Boulevard,Placentia,CA,92870,33.88808197,-117.8654042
Wells Fargo Bank,Placerville,Full Service Brick and Mortar Office,186 Placerville Drive,Placerville,CA,95667,38.72698088,-120.8369196
Wells Fargo Bank,Platt Village,Full Service Brick and Mortar Office,6460 North Platt Avenue,West Hills,CA,91307,34.18827381,-118.6426783
Wells Fargo Bank,Playa Vista,Full Service Brick and Mortar Office,"12746 W Jefferson Boulevard , Suite 2140",Playa Vista,CA,90094,33.97749529,-118.4175514
Wells Fargo Bank,Pleasant Hill,Full Service Brick and Mortar Office,699 Contra Costa Boulevard,Pleasant Hill,CA,94523,37.97188486,-122.0635765
Wells Fargo Bank,Pleasant Hill Plaza,Full Service Retail Office,1978 Contra Costa Boulevard,Pleasant Hill,CA,94523,37.949085,-122.0580045
Wells Fargo Bank,Pleasanton Gateway,Full Service Brick and Mortar Office,6778 Bernal Avenue,Pleasanton,CA,94566,37.65748048,-121.8992613
Wells Fargo Bank,Plymouth,Full Service Brick and Mortar Office,9454 Main Street,Plymouth,CA,95669,38.48127492,-120.847024
Wells Fargo Bank,Point Loma & Midway,Full Service Brick and Mortar Office,3954 W Point Loma Blvd,San Diego,CA,92110,32.75442399,-117.2218994
Wells Fargo Bank,Point Loma,Full Service Brick and Mortar Office,1205 Rosecrans Street,San Diego,CA,92106,32.722596,-117.23049
Wells Fargo Bank,Point Reyes Station,Full Service Brick and Mortar Office,11400 State Route 1,Point Reyes Station,CA,94956,38.068731,-122.8063995
Wells Fargo Bank,Pomona,Full Service Brick and Mortar Office,321 East Holt Avenue,Pomona,CA,91767,34.06253718,-117.7453315
Wells Fargo Bank,Ponderosa & Las Posas,Full Service Brick and Mortar Office,11 East Ponderosa Dr.,Camarillo,CA,93010,34.22366799,-119.0690028
Wells Fargo Bank,Port Hueneme,Full Service Brick and Mortar Office,533 West Channel Islands Boulevard,Port Hueneme,CA,93041,34.17608006,-119.213053
Wells Fargo Bank,Porter Ranch,Full Service Brick and Mortar Office,19767 Rinaldi Street,Porter Ranch,CA,91326,34.27486753,-118.5645555
Wells Fargo Bank,Porterville,Full Service Brick and Mortar Office,815 West Henderson Avenue,Porterville,CA,93257,36.08040055,-119.0353681
Wells Fargo Bank,Potrero & 16th,Full Service Retail Office,2300 16th Street,San Francisco,CA,94103,37.766475,-122.4104085
Wells Fargo Bank,Poway Town & Country,Full Service Brick and Mortar Office,13408 Poway Rd,Poway,CA,92064,32.956532,-117.0403015
Wells Fargo Bank,Poway/Twin Peaks Plaza,Full Service Brick and Mortar Office,14815 Pomerado Road,Poway,CA,92064,32.98014419,-117.0622362
Wells Fargo Bank,"Private Bank San Luis Obispo Pb Office, The",Limited Service Facility Office,711 Tank Farm Road,San Luis Obispo,CA,93401,35.2480949,-120.6435029
Wells Fargo Bank,Prunedale,Full Service Retail Office,17539 Vierra Canyon Road,Salinas,CA,93907,36.793413,-121.6658565
Wells Fargo Bank,Puente Hills,Full Service Brick and Mortar Office,17799 East Colima Road,Rowland Heights,CA,91748,33.99028281,-117.9185773
Wells Fargo Bank,Quail Hill,Full Service Brick and Mortar Office,6503 Quail Hill Parkway,Irvine,CA,92603,33.65419859,-117.7802286
Wells Fargo Bank,Quarry Creek,Full Service Brick and Mortar Office,3470 Marron Road,Oceanside,CA,92056,33.17830306,-117.2954708
Wells Fargo Bank,Quartz Hill Towne Center,Full Service Retail Office,4033 West Avenue L,Lancaster,CA,93536,34.661592,-118.202382
Wells Fargo Bank,R Street Market,Full Service Brick and Mortar Office,1831 S Street,Sacramento,CA,95811,38.56734,-121.4856675
Wells Fargo Bank,Raley's Lodi,Full Service Retail Office,311 South Lower Sacramento Road,Lodi,CA,95242,38.1296925,-121.3068363
Wells Fargo Bank,Raley's Napa,Full Service Retail Office,217 Soscol Avenue,Napa,CA,94559,38.28348,-122.2772985
Wells Fargo Bank,Ramona Office,Full Service Retail Office,1674 Main Street,Ramona,CA,92065,33.03586114,-116.8796783
Wells Fargo Bank,Rancho Bernardo,Full Service Brick and Mortar Office,16901 Bernardo Center Drive,San Diego,CA,92128,33.02142096,-117.0745074
Wells Fargo Bank,Rancho California & Meadows,Full Service Brick and Mortar Office,"31963 Rancho California Road, Suite 100",Temecula,CA,92591,33.51542557,-117.1014994
Wells Fargo Bank,Rancho Cucamonga,Full Service Brick and Mortar Office,10540 Foothill Boulevard,Rancho Cucamonga,CA,91730,34.10658548,-117.574902
Wells Fargo Bank,Rancho Del Oro,Full Service Brick and Mortar Office,4176 Oceanside Blvd,Oceanside,CA,92056,33.20715412,-117.2860623
Wells Fargo Bank,Rancho Mirage,Full Service Brick and Mortar Office,42350 Bob Hope Drive,Rancho Mirage,CA,92270,33.738714,-116.408064
Wells Fargo Bank,Rancho Palos Verdes,Full Service Brick and Mortar Office,28350 South Western Avenue,Rancho Palos Verdes,CA,90275,33.7622704,-118.3117239
Wells Fargo Bank,Rancho Park,Full Service Brick and Mortar Office,10789 West Pico Boulevard,Los Angeles,CA,90064,34.04072151,-118.4273194
Wells Fargo Bank,Rancho Penasquitos Towne Ctr.,Full Service Retail Office,13255 Black Mountain Road,San Diego,CA,92129,32.957901,-117.125226
Wells Fargo Bank,Rancho San Diego,Full Service Brick and Mortar Office,2366 Jamacha Road,El Cajon,CA,92019,32.74767777,-116.9272993
Wells Fargo Bank,Rancho Santa Fe,Full Service Brick and Mortar Office,6008 Paseo Delicias,Rancho Santa Fe,CA,92067,33.020037,-117.204183
Wells Fargo Bank,Rancho Santa Fe Trust Office,Limited Service Trust Office,6046 El Tordo Street,Rancho Santa Fe,CA,92067,33.0205152,-117.2040437
Wells Fargo Bank,Rancho Santa Margarita,Full Service Brick and Mortar Office,30622 Santa Margarita Parkway,Rancho Santa Margarita,CA,92688,33.641136,-117.595755
Wells Fargo Bank,Rancho Vista Center,Full Service Retail Office,3027 Rancho Vista Boulevard,Palmdale,CA,93551,34.603425,-118.184265
Wells Fargo Bank,Red Bluff,Full Service Brick and Mortar Office,555 Walnut Street,Red Bluff,CA,96080,40.17701022,-122.2383984
Wells Fargo Bank,Red Maple Village,Full Service Brick and Mortar Office,2600 South Tracy Blvd,Tracy,CA,95376,37.71248429,-121.4345801
Wells Fargo Bank,Redding,Full Service Brick and Mortar Office,1515 Pine Street,Redding,CA,96001,40.58431468,-122.3893826
Wells Fargo Bank,Redlands,Full Service Brick and Mortar Office,220 East State Street,Redlands,CA,92373,34.0564045,-117.179658
Wells Fargo Bank,Redondo Beach,Full Service Brick and Mortar Office,301 South Pacific Coast Highway,Redondo Beach,CA,90277,33.83802,-118.3857885
Wells Fargo Bank,Redwood Plaza,Full Service Retail Office,774 Admiral Callaghan Lane,Vallejo,CA,94591,38.125458,-122.226525
Wells Fargo Bank,Redwood Shores Pkwy,Full Service Retail Office,270 Redwood Shores Parkway,Redwood City,CA,94065,37.52302217,-122.2530579
Wells Fargo Bank,Reedley,Full Service Brick and Mortar Office,1603 11th Street,Reedley,CA,93654,36.597357,-119.4503265
Wells Fargo Bank,Reseda,Full Service Brick and Mortar Office,18400 Sherman Way,Reseda,CA,91335,34.200774,-118.5338025
Wells Fargo Bank,Rialto,Full Service Brick and Mortar Office,190 West Foothill Boulevard,Rialto,CA,92376,34.107111,-117.372249
Wells Fargo Bank,Rialto Superior,Full Service Retail Office,151 West Base Line Road,Rialto,CA,92376,34.12127979,-117.3714497
Wells Fargo Bank,Richmond Main,Full Service Brick and Mortar Office,4300 Macdonald Avenue,Richmond,CA,94805,37.93294765,-122.3286141
Wells Fargo Bank,Rincon Center,Full Service Brick and Mortar Office,101 Mission Street,San Francisco,CA,94105,37.792152,-122.3940015
Wells Fargo Bank,Rincon Hill,Full Service Brick and Mortar Office,303 2nd Street,San Francisco,CA,94107,37.785096,-122.3952975
Wells Fargo Bank,Riverbank,Full Service Brick and Mortar Office,2213 Claribel Road,Riverbank,CA,95367,37.712016,-120.957714
Wells Fargo Bank,Rivermark Village,Full Service Brick and Mortar Office,3920 Rivermark Village Plaza,Santa Clara,CA,95054,37.3947249,-121.9459469
Wells Fargo Bank,Riverside & Mariota,Full Service Brick and Mortar Office,10064 Riverside Drive,North Hollywood,CA,91602,34.15217261,-118.350214
Wells Fargo Bank,Riverside,Full Service Brick and Mortar Office,3750 University Avenue,Riverside,CA,92501,33.98218325,-117.3751236
Wells Fargo Bank,Riviera Village,Full Service Brick and Mortar Office,1701 South Elena Avenue,Redondo Beach,CA,90277,33.818751,-118.3857885
Wells Fargo Bank,Rocklin,Full Service Brick and Mortar Office,2173 Sunset Blvd,Rocklin,CA,95765,38.80559673,-121.2733774
Wells Fargo Bank,Rockridge,Full Service Retail Office,5100 Broadway,Oakland,CA,94611,37.83555075,-122.251607
Wells Fargo Bank,Rohnert Park,Full Service Retail Office,100 Raleys Towne Center,Rohnert Park,CA,94928,38.34693452,-122.7057373
Wells Fargo Bank,Rohnert Park Main,Full Service Brick and Mortar Office,5 Padre Parkway,Rohnert Park,CA,94928,38.34973694,-122.709394
Wells Fargo Bank,Rolling Hills & Crenshaw,Full Service Brick and Mortar Office,2905 Rolling Hills Road,Torrance,CA,90505,33.788988,-118.340316
Wells Fargo Bank,Rose Ranch,Full Service Brick and Mortar Office,1700 East Gonzales Road,Oxnard,CA,93036,34.21881248,-119.1597497
Wells Fargo Bank,Rosedale & Allen,Full Service Retail Office,13045 Rosedale Highway,Bakersfield,CA,93314,35.382123,-119.146266
Wells Fargo Bank,Rosemead,Full Service Brick and Mortar Office,1803 Walnut Grove Avenue,Rosemead,CA,91770,34.049128,-118.0819054
Wells Fargo Bank,Roseville,Full Service Brick and Mortar Office,2000 Douglas Boulevard,Roseville,CA,95661,38.743776,-121.2525675
Wells Fargo Bank,Roseville Creekside,Full Service Brick and Mortar Office,1172 Galleria Boulevard,Roseville,CA,95678,38.77175613,-121.2656086
Wells Fargo Bank,Roseville Square,Full Service Brick and Mortar Office,110 Harding Blvd,Roseville,CA,95678,38.74611678,-121.2733146
Wells Fargo Bank,Rossmoor-Walnut Creek,Full Service Brick and Mortar Office,1920 Tice Valley Boulevard,Walnut Creek,CA,94595,37.8792,-122.0733405
Wells Fargo Bank,Rowland Heights,Full Service Brick and Mortar Office,19708 Colima Road,Rowland Heights,CA,91748,33.98611849,-117.8719586
Wells Fargo Bank,Sacramento Main,Full Service Brick and Mortar Office,400 Capitol Mall,Sacramento,CA,95814,38.578338,-121.502466
Wells Fargo Bank,Sacramento Pb Office,Limited Service Facility Office,1512 Eureka Road,Roseville,CA,95661,38.7500355,-121.2494043
Wells Fargo Bank,Sacramento State,Full Service Brick and Mortar Office,6000 J Street,Sacramento,CA,95819,38.56329,-121.426353
Wells Fargo Bank,Sacramento Sunrise,Full Service Brick and Mortar Office,6047 Sunrise Boulevard,Citrus Heights,CA,95610,38.67435,-121.272237
Wells Fargo Bank,Safeway Bollinger Road,Full Service Retail Office,6150 Bollinger Road,San Jose,CA,95129,37.309653,-122.0117625
Wells Fargo Bank,Safeway Gridley,Full Service Retail Office,1596 State Highway 99,Gridley,CA,95948,39.362544,-121.6865475
Wells Fargo Bank,Safeway La Playa,Full Service Retail Office,850 La Playa Street,San Francisco,CA,94121,37.772352,-122.5094265
Wells Fargo Bank,Safeway South Davis,Full Service Retail Office,2121 Cowell Boulevard,Davis,CA,95618,38.54048985,-121.7239467
Wells Fargo Bank,Salinas,Full Service Brick and Mortar Office,456 South Main Street,Salinas,CA,93901,36.670086,-121.655709
