bank,branch,service,street,city,state,zip,latitude,longitude
JPMorgan Chase Bank,135th Street & Fifth Avenue,Full Service Brick and Mortar Office,2218 5th Avenue,New York,NY,10037,40.81257679906509,-73.93779751125273
JPMorgan Chase Bank,187-15 Union Turnpike,Full Service Brick and Mortar Office,18715 Union Turnpike,Fresh Meadows,NY,11366,40.729213822378604,-73.7814052559005
JPMorgan Chase Bank,225th & Broadway,Full Service Brick and Mortar Office,90 W 225th Street,Bronx,NY,10463,40.87433075630454,-73.90939265251885
JPMorgan Chase Bank,37th & Seventh,Full Service Brick and Mortar Office,498 7th Ave,New York,NY,10018,40.752698045697564,-73.98940647888773
JPMorgan Chase Bank,40th And Lexington,Full Service Brick and Mortar Office,355 Lexington Avenue,New York,NY,10017,40.75033955813957,-73.97682313168683
JPMorgan Chase Bank,57th & First Avenue,Full Service Brick and Mortar Office,360 E. 57th Street,New York,NY,10022,40.758264,-73.9632195
JPMorgan Chase Bank,70th & Broadway Banking Cntr,Full Service Brick and Mortar Office,2030 Broadway,New York,NY,10023,40.776720621703504,-73.98197978100302
JPMorgan Chase Bank,73rd Avenue,Full Service Brick and Mortar Office,15617 73rd Avenue,Flushing,NY,11367,40.727203417161924,-73.81153936733222
JPMorgan Chase Bank,73rd Street & Broadway,Full Service Brick and Mortar Office,2099 Broadway,New York,NY,10023,40.77954,-73.982025
JPMorgan Chase Bank,Abingdon Square,Full Service Brick and Mortar Office,302 West 12th Street,New York,NY,10014,40.737303,-74.0047095
JPMorgan Chase Bank,Albee Square,Full Service Brick and Mortar Office,20 Flatbush Avenue,Brooklyn,NY,11217,40.688270770183,-73.980546364014
JPMorgan Chase Bank,Alden Manor,Full Service Brick and Mortar Office,23939 Linden Boulevard,Elmont,NY,11003,40.689991139735,-73.72322775303526
JPMorgan Chase Bank,Allerton Avenue,Full Service Brick and Mortar Office,748 Allerton Avenue,Bronx,NY,10467,40.865309999999994,-73.86559199999999
JPMorgan Chase Bank,Amboy Montreal,Full Service Brick and Mortar Office,3155 Amboy Road,Staten Island,NY,10306,40.56373219484673,-74.13248349446008
JPMorgan Chase Bank,Amityville Drive-In,Limited Service Facility Office,4 John Street,Amityville,NY,11701,40.679001693117726,-73.41964988410633
JPMorgan Chase Bank,Amityville Driveup,Full Service Brick and Mortar Office,8 Green Ave,Amityville,NY,11701,40.67837024672523,-73.4178137581222
JPMorgan Chase Bank,Apple Valley Center,Full Service Brick and Mortar Office,704 Freedom Plains Road,Poughkeepsie,NY,12603,41.668938,-73.8396
JPMorgan Chase Bank,Arcadian Shopping Center,Full Service Retail Office,214 S Highland Avenue,Ossining,NY,10562,41.14466100000001,-73.861668
JPMorgan Chase Bank,Arden Heights,Full Service Brick and Mortar Office,230 Arden Avenue,Staten Island,NY,10312,40.55382,-74.1928905
JPMorgan Chase Bank,Ardsley,Full Service Brick and Mortar Office,875 Saw Mill River Road,Ardsley,NY,10502,41.01836786787406,-73.84389896222547
JPMorgan Chase Bank,Armonk Square,Full Service Brick and Mortar Office,"400 Main Street, Suite 1",Armonk,NY,10504,41.125824932524644,-73.7139527018152
JPMorgan Chase Bank,Arthur Avenue,Full Service Brick and Mortar Office,2402 Arthur Avenue,Bronx,NY,10458,40.855792641958615,-73.8873300442611
JPMorgan Chase Bank,Arverne By The Sea Banking Center Br,Full Service Brick and Mortar Office,6820 Rockaway Beach Blvd,Arverne,NY,11692,40.59050400000001,-73.797444
JPMorgan Chase Bank,Astor Place Banking Center,Full Service Brick and Mortar Office,26 Astor Place,New York,NY,10003,40.729796738819395,-73.99126166111719
JPMorgan Chase Bank,Astoria 30th Avenue,Full Service Brick and Mortar Office,31-05 30th Avenue,Astoria,NY,11102,40.766733931732865,-73.92098751373423
JPMorgan Chase Bank,Astoria Broadway And 21st St,Full Service Brick and Mortar Office,21-21 Broadway,Astoria,NY,11106,40.76473612046275,-73.93073034901036
JPMorgan Chase Bank,Atlantic Avenue And Ozone Park Branc,Full Service Brick and Mortar Office,102-20 Atlantic Avenue,Ozone Park,NY,11416,40.6900397063306,-73.84188868275727
JPMorgan Chase Bank,Audubon,Full Service Brick and Mortar Office,3940 Broadway,New York,NY,10032,40.83925122869182,-73.94091170676329
JPMorgan Chase Bank,Avenue H,Full Service Brick and Mortar Office,1599 Flatbush Avenue,Brooklyn,NY,11210,40.63139928671583,-73.94610749901905
JPMorgan Chase Bank,Avenue Of The Americas,Limited Service Administrative Office,"1211 Avenue Of The Americas, 39th Fl",New York,NY,10036,40.758471000000014,-73.9819575
JPMorgan Chase Bank,Avenue Of The Americas,Full Service Brick and Mortar Office,1370 Avenue Of The Americas,New York,NY,10019,40.763142000000016,-73.977471
JPMorgan Chase Bank,Avenue U And East 17th St,Full Service Brick and Mortar Office,1722 Avenue U,Brooklyn,NY,11229,40.59885600000001,-73.95370199999999
JPMorgan Chase Bank,Avenue U At Bedford Bkg. Ctr.,Full Service Brick and Mortar Office,2512 Avenue U,Brooklyn,NY,11229,40.59991153621103,-73.94624256119799
JPMorgan Chase Bank,Babylon,Full Service Brick and Mortar Office,31 West Main Street,Babylon,NY,11702,40.696631999999994,-73.32373799999999
JPMorgan Chase Bank,Bainbridge,Full Service Brick and Mortar Office,3169 Bainbridge Avenue,Bronx,NY,10467,40.875379428530216,-73.87954076270982
JPMorgan Chase Bank,Baldwin Atlantic,Full Service Brick and Mortar Office,915 Atlantic Avenue,Baldwin,NY,11510,40.64074200000002,-73.60743599999999
JPMorgan Chase Bank,Baldwin North Banking Center,Full Service Brick and Mortar Office,1235 Grand Avenue,Baldwin,NY,11510,40.680076546771275,-73.61483824669656
JPMorgan Chase Bank,Baldwin Place,Full Service Brick and Mortar Office,80 Route 6,Baldwin Place,NY,10505,41.34403800000001,-73.7582985
JPMorgan Chase Bank,Bar Harbour,Full Service Brick and Mortar Office,4970 Merrick Road,Massapequa Park,NY,11762,40.66645288617368,-73.45222686150383
JPMorgan Chase Bank,Barclay St,Full Service Brick and Mortar Office,240 B Greenwich St,New York,NY,10007,40.71392390175426,-74.01165610479528
JPMorgan Chase Bank,Bath Beach Banking Center,Full Service Brick and Mortar Office,1640 86th Street,Brooklyn,NY,11214,40.60947192532757,-74.00632170428179
JPMorgan Chase Bank,Bay Parkway & 67th Street Banking Ce,Full Service Brick and Mortar Office,6701 Bay Parkway,Brooklyn,NY,11204,40.612407643343595,-73.98286079058232
JPMorgan Chase Bank,Bay Parkway And 85th St,Full Service Brick and Mortar Office,8418 Bay Parkway,Brooklyn,NY,11214,40.602687662790636,-73.99307826700898
JPMorgan Chase Bank,Bay Plaza,Full Service Brick and Mortar Office,2130 Bartow Avenue,Bronx,NY,10475,40.86735300000001,-73.827279
JPMorgan Chase Bank,Bay Ridge At 86th,Full Service Brick and Mortar Office,413 86th St,Brooklyn,NY,11209,40.62256361255692,-74.02795510185243
JPMorgan Chase Bank,Bay Ridge,Full Service Brick and Mortar Office,7427 Fifth Avenue,Brooklyn,NY,11209,40.629779057447095,-74.02249490492824
JPMorgan Chase Bank,Bay Ridge Third Avenue,Full Service Brick and Mortar Office,9313 Third Avenue,Brooklyn,NY,11209,40.618362489583994,-74.03311791782575
JPMorgan Chase Bank,Bay Shore,Full Service Brick and Mortar Office,537 E Main S,Bay Shore,NY,11706,40.72876200000002,-73.2298635
JPMorgan Chase Bank,Bay Terrace,Full Service Brick and Mortar Office,2398 Bell Boulevard,Bayside,NY,11360,40.78017,-73.7771355
JPMorgan Chase Bank,Bayport,Full Service Brick and Mortar Office,925 Montauk Highway,Bayport,NY,11705,40.749156,-73.046799
JPMorgan Chase Bank,Bayside Bell,Full Service Brick and Mortar Office,41-22 Bell Boulevard,Bayside,NY,11361,40.76293550346246,-73.77066338302836
JPMorgan Chase Bank,Bayside South,Full Service Brick and Mortar Office,215-16 73rd Avenue,Oakland Gardens,NY,11364,40.74064018844143,-73.75879284026779
JPMorgan Chase Bank,Beacon,Full Service Brick and Mortar Office,404 Main Street,Beacon,NY,12508,41.50309153095957,-73.96642246335627
JPMorgan Chase Bank,Bedford And Dekalb,Full Service Brick and Mortar Office,975 Bedford Avenue,Brooklyn,NY,11205,40.690733374689806,-73.9553421068441
JPMorgan Chase Bank,Bedford Hills,Full Service Brick and Mortar Office,711 Bedford Road,Bedford Hills,NY,10507,41.225616,-73.7141895
JPMorgan Chase Bank,Bedford Village,Full Service Brick and Mortar Office,420 Old Post Road,Bedford,NY,10506,41.195243601325565,-73.65547925196915
JPMorgan Chase Bank,Bellerose,Full Service Brick and Mortar Office,24720 Jericho Turnpike,Floral Park,NY,11001,40.72532238560146,-73.72070859688702
JPMorgan Chase Bank,Bellmore Ave And Peach,Full Service Brick and Mortar Office,501 Bellmore Avenue,East Meadow,NY,11554,40.70605499999999,-73.56836249999999
JPMorgan Chase Bank,Bellmore,Full Service Brick and Mortar Office,2631 Merrick Road,Bellmore,NY,11710,40.66332299999999,-73.5286185
JPMorgan Chase Bank,Bellport,Full Service Brick and Mortar Office,32 Station Road,Bellport,NY,11713,40.75942499999999,-72.940032
JPMorgan Chase Bank,Bensonhurst,Full Service Brick and Mortar Office,85-23 20th Avenue,Brooklyn,NY,11214,40.62573125453541,-73.97628413432643
JPMorgan Chase Bank,Bethpage,Full Service Brick and Mortar Office,365 Broadway,Bethpage,NY,11714,40.742986012493496,-73.47964677855018
JPMorgan Chase Bank,Bloomingdales,Full Service Brick and Mortar Office,770 Lexington Avenue,New York,NY,10065,40.763037352213004,-73.96762995504639
JPMorgan Chase Bank,Bohemia,Full Service Brick and Mortar Office,4170 Veterans Memorial Highway,Bohemia,NY,11716,40.78241342431796,-73.09876579087079
JPMorgan Chase Bank,Boro Park,Full Service Brick and Mortar Office,4901 Thirteenth Avenue,Brooklyn,NY,11219,40.63484700000001,-73.992087
JPMorgan Chase Bank,Boston Post Rd And Weaver,Full Service Brick and Mortar Office,1350 Boston Post Road,Larchmont,NY,10538,40.934853000000004,-73.7482365
JPMorgan Chase Bank,Bowery & First Banking Center,Full Service Brick and Mortar Office,305 Bowery,New York,NY,10003,40.725028991113206,-73.99223317011956
JPMorgan Chase Bank,Boynton Avenue,Full Service Brick and Mortar Office,1536 Westchester Avenue,Bronx,NY,10472,40.828374,-73.8783495
JPMorgan Chase Bank,Brentwood Bay Shore,Full Service Brick and Mortar Office,1650 Fifth Avenue,Bay Shore,NY,11706,40.76004769692419,-73.26198398866035
JPMorgan Chase Bank,Brentwood,Full Service Brick and Mortar Office,1800 Brentwood Road,Brentwood,NY,11717,40.77855405467713,-73.24618436943835
JPMorgan Chase Bank,Brewster Clocktower Commons,Full Service Brick and Mortar Office,700 Clocktower Commons,Brewster,NY,10509,41.41995172635187,-73.57199871534748
JPMorgan Chase Bank,Briarcliff Manor,Full Service Brick and Mortar Office,1100 Pleasantville Road,Briarcliff Manor,NY,10510,41.14945413514929,-73.82967465932818
JPMorgan Chase Bank,Brighton Beach,Full Service Brick and Mortar Office,722 Brighton Beach Avenue,Brooklyn,NY,11235,40.577777999999995,-73.959831
JPMorgan Chase Bank,Brighton Beach Walk Bnkg Ctr,Full Service Brick and Mortar Office,128 Brighton Beach Avenue,Brooklyn,NY,11235,40.57620299999999,-73.967229
JPMorgan Chase Bank,Brighton East,Full Service Brick and Mortar Office,1002 Brighton Beach Avenue,Brooklyn,NY,11235,40.57807279043809,-73.95907920690752
JPMorgan Chase Bank,Brighton Monroe,Full Service Brick and Mortar Office,1755 Monroe Street,Rochester,NY,14618,43.128990000000016,-77.568075
JPMorgan Chase Bank,Brightwaters,Full Service Brick and Mortar Office,169 Orinoco Drive,Brightwaters,NY,11718,40.720807887298875,-73.26571033804609
JPMorgan Chase Bank,Broadway & 10th Street Bkg. Ctr. Bra,Full Service Brick and Mortar Office,785 Broadway,New York,NY,10003,40.73167800000002,-73.991727
JPMorgan Chase Bank,Broadway & 125th,Full Service Brick and Mortar Office,3200 Broadway,New York,NY,10027,40.81589273965612,-73.95798396834793
JPMorgan Chase Bank,Broadway & Chambrs,Full Service Brick and Mortar Office,270 Broadway,New York,NY,10007,40.71411900000001,-74.006568
JPMorgan Chase Bank,Broadway & Elmhurst Bnkg Ctr,Full Service Brick and Mortar Office,7906 Broadway,Elmhurst,NY,11373,40.74416018344976,-73.88562785942636
JPMorgan Chase Bank,Broadway And 136th,Full Service Brick and Mortar Office,3359 Broadway,New York,NY,10031,40.82076900000001,-73.9549215
JPMorgan Chase Bank,Broadway And 13th,Full Service Brick and Mortar Office,835 Broadway,New York,NY,10003,40.733919000000014,-73.991115
JPMorgan Chase Bank,Broadway And 144th St,Full Service Brick and Mortar Office,3515 Broadway,New York,NY,10031,40.82576399999999,-73.951533
JPMorgan Chase Bank,Broadway And 32nd,Full Service Brick and Mortar Office,1260 Broadway,New York,NY,10001,40.7484663738531,-73.98811079779568
JPMorgan Chase Bank,Broadway And 61st,Full Service Brick and Mortar Office,1860 Broadway,New York,NY,10023,40.76974799999999,-73.98182249999999
JPMorgan Chase Bank,Broadway And 79th Street,Full Service Brick and Mortar Office,2219 Broadway,New York,NY,10024,40.78350794116793,-73.9803909543539
JPMorgan Chase Bank,Broadway And 96th Street,Full Service Brick and Mortar Office,2540 Broadway,New York,NY,10025,40.794143249783666,-73.972020416585
JPMorgan Chase Bank,Broadway And Fulton,Full Service Brick and Mortar Office,214 Broadway,New York,NY,10038,40.710905999999994,-74.0088495
JPMorgan Chase Bank,Broadway,Full Service Brick and Mortar Office,5581 Broadway,Bronx,NY,10463,40.87914919124006,-73.9047206199145
JPMorgan Chase Bank,Broadway Hewlett,Full Service Brick and Mortar Office,1304 Broadway,Hewlett,NY,11557,40.63924298003336,-73.70062347059829
JPMorgan Chase Bank,Broadway Lispenard,Full Service Brick and Mortar Office,407 Broadway,New York,NY,10013,40.71889336831317,-74.00230785596392
JPMorgan Chase Bank,Broadway Morris Exchange,Full Service Brick and Mortar Office,42 Broadway,New York,NY,10004,40.70619097501304,-74.0129508918865
JPMorgan Chase Bank,Broadway-Flushing,Full Service Brick and Mortar Office,163-20 Northern Boulevard,Flushing,NY,11358,40.76094525699702,-73.80224343533955
JPMorgan Chase Bank,Brockport,Full Service Brick and Mortar Office,66 Main Street,Brockport,NY,14420,43.215237,-77.938848
JPMorgan Chase Bank,Bronx 170th Street Banking Center,Full Service Retail Office,96 East 170th Street,Bronx,NY,10452,40.839399000000014,-73.9158975
JPMorgan Chase Bank,Bronxville,Full Service Brick and Mortar Office,132 Parkway Road,Bronxville,NY,10708,40.94103642626516,-73.83570865886618
JPMorgan Chase Bank,Brooklyn Trust,Full Service Brick and Mortar Office,177 Montague Street,Brooklyn,NY,11201,40.69425100167343,-73.99222213113856
JPMorgan Chase Bank,Brownsville,Full Service Brick and Mortar Office,1697 Pitkin Avenue,Brooklyn,NY,11212,40.669741319464414,-73.91056841548848
JPMorgan Chase Bank,Buffalo-Mm,Full Service Brick and Mortar Office,350 Main Street,Buffalo,NY,14202,42.884261601448415,-78.87487638623101
JPMorgan Chase Bank,Buhre Avenue,Full Service Brick and Mortar Office,3008 Buhre Avenue,Bronx,NY,10461,40.84719383873859,-73.83162140590917
JPMorgan Chase Bank,Burnside Avenue,Full Service Brick and Mortar Office,5 West Burnside Avenue,Bronx,NY,10453,40.853877212331874,-73.90769681848347
JPMorgan Chase Bank,Canal St And Baxter,Full Service Brick and Mortar Office,221 Canal Street,New York,NY,10013,40.717917,-73.9995345
JPMorgan Chase Bank,Canandaigua,Full Service Brick and Mortar Office,130 South Main Street,Canandaigua,NY,14424,42.885693,-77.2804125
JPMorgan Chase Bank,Canarsie,Full Service Brick and Mortar Office,1764 Rockaway Parkway,Brooklyn,NY,11236,40.638581759911204,-73.89505231002936
JPMorgan Chase Bank,Carle Place,Full Service Brick and Mortar Office,267 Old Country Road,Carle Place,NY,11514,40.744050138236375,-73.60993292867444
JPMorgan Chase Bank,Carnegie Hall Banking Center,Full Service Brick and Mortar Office,171 West 57th Street,New York,NY,10019,40.765403670840726,-73.97966586358132
JPMorgan Chase Bank,Carnegie Hill,Full Service Brick and Mortar Office,181 East 90th Street,New York,NY,10128,40.781515860955594,-73.95234874701369
JPMorgan Chase Bank,Carroll Gardens,Full Service Brick and Mortar Office,79 Hamilton Avenue,Brooklyn,NY,11231,40.682843381354914,-74.0055643591379
JPMorgan Chase Bank,Castle Hill Avenue,Full Service Brick and Mortar Office,1309 Castle Hill Avenue,Bronx,NY,10462,40.834446087425704,-73.85193912490615
JPMorgan Chase Bank,Castle Hill,Full Service Brick and Mortar Office,784 Castle Hill Avenue,Bronx,NY,10473,40.82300864807546,-73.84892957533626
JPMorgan Chase Bank,Cedarhurst Banking Center,Full Service Brick and Mortar Office,446 Central Avenue,Cedarhurst,NY,11516,40.620405634485444,-73.72555897183904
JPMorgan Chase Bank,Center Moriches Main St,Full Service Brick and Mortar Office,366 Main St,Center Moriches,NY,11934,40.80008699999999,-72.793026
JPMorgan Chase Bank,Centereach Banking Center,Full Service Brick and Mortar Office,2102 Middle Country Road,Centereach,NY,11720,40.85825030487785,-73.08636747345497
JPMorgan Chase Bank,Central Avenue,Full Service Brick and Mortar Office,270 North Central Avenue,Valley Stream,NY,11580,40.675114121011035,-73.70955631101032
JPMorgan Chase Bank,Chappaqua,Full Service Brick and Mortar Office,417 King Street,Chappaqua,NY,10514,41.15987513976273,-73.7655073942403
JPMorgan Chase Bank,Chappaqua Crossing,Full Service Brick and Mortar Office,480 Bedford Road,Chappaqua,NY,10514,41.17748399999999,-73.75126949999999
JPMorgan Chase Bank,Charlotte,Full Service Brick and Mortar Office,3917 Lake Avenue,Rochester,NY,14612,43.24182300000001,-77.6205945
JPMorgan Chase Bank,Chase Plaza,Full Service Brick and Mortar Office,28 Liberty St,New York,NY,10005,40.708095434070145,-74.00878044852551
JPMorgan Chase Bank,Chase Strivers Center,Limited Service Retail Office,251 West 135th Street,New York,NY,10030,40.816410526516165,-73.94622451956262
JPMorgan Chase Bank,Chatham Square,Full Service Brick and Mortar Office,8 Chatham Square,New York,NY,10038,40.713735194298486,-73.99803580558596
JPMorgan Chase Bank,Chelsea,Full Service Brick and Mortar Office,"158 West 14th Street, 2nd Floor",New York,NY,10011,40.73843709518735,-73.9994991335045
JPMorgan Chase Bank,Chestnut Ridge,Full Service Brick and Mortar Office,501 Chestnut Ridge Road,Spring Valley,NY,10977,41.101056156818025,-74.04598432462896
JPMorgan Chase Bank,Chinatown,Full Service Brick and Mortar Office,180 Canal Street,New York,NY,10013,40.71663000000001,-73.99768949999999
JPMorgan Chase Bank,Chrysler Building,Full Service Brick and Mortar Office,405 Lexington Avenue,New York,NY,10174,40.75198647432056,-73.97562596404877
JPMorgan Chase Bank,Church Avenue,Full Service Brick and Mortar Office,891 Utica Avenue,Brooklyn,NY,11203,40.651276766864775,-73.93032517842944
JPMorgan Chase Bank,Church Avenue,Full Service Brick and Mortar Office,5015 Church Avenue,Brooklyn,NY,11203,40.65189155343638,-73.92970227921403
JPMorgan Chase Bank,Cicero Banking Center,Full Service Brick and Mortar Office,7888 Brewerton Road,Cicero,NY,13039,43.15166099999999,-76.123971
JPMorgan Chase Bank,City Hall Banking Center,Full Service Brick and Mortar Office,253 Broadway,New York,NY,10007,40.713291,-74.007252
JPMorgan Chase Bank,City Island,Full Service Brick and Mortar Office,207 City Island Avenue,Bronx,NY,10464,40.84415572577764,-73.78536408647342
JPMorgan Chase Bank,Clinton Banking Center,Full Service Brick and Mortar Office,471 West 42nd Street,New York,NY,10036,40.75943222843205,-73.99493578850485
JPMorgan Chase Bank,Cobble Hill Banking Center,Full Service Brick and Mortar Office,101 Court Street,Brooklyn,NY,11201,40.690764,-73.9915245
JPMorgan Chase Bank,College Point,Full Service Brick and Mortar Office,132-01 14th Ave,College Point,NY,11356,40.78630809354255,-73.83607635858965
JPMorgan Chase Bank,College Road West Monsey Banking Cen,Full Service Brick and Mortar Office,410 Route 59,Monsey,NY,10952,41.1101043511165,-74.08930677101971
JPMorgan Chase Bank,Columbia University,Full Service Brick and Mortar Office,2824-26 Broadway,New York,NY,10025,40.8037410530037,-73.96685540132155
JPMorgan Chase Bank,Columbus & 76th St. Bkg. Ctr.,Full Service Brick and Mortar Office,335 Columbus Avenue,New York,NY,10023,40.77978300000001,-73.976832
JPMorgan Chase Bank,Columbus And 97th,Full Service Brick and Mortar Office,775 Columbus Ave,New York,NY,10025,40.79392676796129,-73.9667429748688
JPMorgan Chase Bank,Columbus Avenue & 72nd Street,Full Service Brick and Mortar Office,260 Columbus Avenue,New York,NY,10023,40.77766547460901,-73.97872937552653
JPMorgan Chase Bank,Columbus Circle Banking Center Branc,Full Service Brick and Mortar Office,988 8th Ave,New York,NY,10019,40.767322153666065,-73.98233332371292
JPMorgan Chase Bank,Columbus Lincoln Square Banking Cent,Full Service Brick and Mortar Office,160 Columbus Avenue,New York,NY,10023,40.774554691095815,-73.9809848864908
JPMorgan Chase Bank,Commack Vanderbilt Pkwy,Full Service Brick and Mortar Office,39 Vanderbilt Motor Parkway,Commack,NY,11725,40.816491617865694,-73.29184844434192
JPMorgan Chase Bank,Commackvets Hwy,Full Service Brick and Mortar Office,60 Veterans Memorial Hwy,Commack,NY,11725,40.84185600000001,-73.2865545
JPMorgan Chase Bank,Concourse,Full Service Brick and Mortar Office,128 East Fordham Road,Bronx,NY,10468,40.862033999999994,-73.8981045
JPMorgan Chase Bank,Coney Island,Full Service Brick and Mortar Office,2500 Coney Island Avenue,Brooklyn,NY,11223,40.595957999999996,-73.96121699999999
JPMorgan Chase Bank,Congers,Full Service Brick and Mortar Office,56 Lake Road,Congers,NY,10920,41.15012127451082,-73.93955785622371
JPMorgan Chase Bank,Copiague,Full Service Brick and Mortar Office,895 Merrick Road,Copiague,NY,11726,40.669037047001204,-73.39300514645872
JPMorgan Chase Bank,Cornwall,Full Service Brick and Mortar Office,36 Broadway,Cornwall,NY,12518,41.43494907273919,-74.0360330495699
JPMorgan Chase Bank,Corona - 99th Street,Full Service Brick and Mortar Office,5702 99th Street,Corona,NY,11368,40.73819399999999,-73.860201
JPMorgan Chase Bank,Corona 103rd St,Full Service Brick and Mortar Office,37-94 103rd Street,Corona,NY,11368,40.75077738328816,-73.86318433181367
JPMorgan Chase Bank,Corporate Park,Full Service Brick and Mortar Office,100 Corporate Park Drive,West Harrison,NY,10604,41.01902649206548,-73.72461955799534
JPMorgan Chase Bank,Cortlandt Manor,Full Service Brick and Mortar Office,3394 Crompond Rd,Yorktown Heights,NY,10598,41.29165800000001,-73.831599
JPMorgan Chase Bank,Country Pointe,Full Service Brick and Mortar Office,1667 Old Country Rd,Plainview,NY,11803,40.78048471845443,-73.4490121642349
JPMorgan Chase Bank,Court Street 1st Place,Full Service Brick and Mortar Office,390 Court St,Brooklyn,NY,11231,40.68091626034389,-73.99661315044138
JPMorgan Chase Bank,Cross County,Full Service Brick and Mortar Office,762 Central Park Avenue,Yonkers,NY,10704,40.927221,-73.85683949999999
JPMorgan Chase Bank,Cross River,Full Service Brick and Mortar Office,20 N Salem Rd,Cross River,NY,10518,41.269842376338424,-73.60646111320006
JPMorgan Chase Bank,Croton,Full Service Brick and Mortar Office,2003 Albany Post Road,Croton On Hudson,NY,10520,41.227857,-73.908729
JPMorgan Chase Bank,Croton-On-hudson,Full Service Brick and Mortar Office,171 South Riverside Avenue,Croton On Hudson,NY,10520,41.20163151098798,-73.88666214834089
JPMorgan Chase Bank,Cs First Boston Corp Cashier,Limited Service Mobile Office,11 Madison Avenue,New York,NY,10010,40.74187513682272,-73.9872315165042
JPMorgan Chase Bank,Cypress Hills,Full Service Brick and Mortar Office,3380 Fulton Street,Brooklyn,NY,11208,40.6839616142017,-73.87094165153789
JPMorgan Chase Bank,Deer Park Grand Blvd,Full Service Brick and Mortar Office,615 Grand Boulevard,Deer Park,NY,11729,40.758918724969575,-73.32032441701769
JPMorgan Chase Bank,Delancey Street,Full Service Brick and Mortar Office,109 Delancey Street,New York,NY,10002,40.718505730769294,-73.98844813419699
JPMorgan Chase Bank,Dewitt,Full Service Brick and Mortar Office,4425 East Genesee Street,Syracuse,NY,13214,43.03521377021165,-76.06732106618966
JPMorgan Chase Bank,Ditmars Blvd And 31st,Full Service Brick and Mortar Office,2230 31st St,Astoria,NY,11105,40.77544515626977,-73.9115703537422
JPMorgan Chase Bank,Ditmars,Full Service Brick and Mortar Office,22-45 31st Street,Astoria,NY,11105,40.77514267831386,-73.91185191159333
JPMorgan Chase Bank,Dix Hills,Full Service Brick and Mortar Office,699 Old Country Rd,Huntington Station,NY,11746,40.830771917493394,-73.35939828014568
JPMorgan Chase Bank,Dobbs Ferry,Full Service Brick and Mortar Office,12 Ashford Avenue,Dobbs Ferry,NY,10522,41.01558042379836,-73.86856570912921
JPMorgan Chase Bank,Dongan Hills,Full Service Brick and Mortar Office,1690 Hylan Boulevard,Staten Island,NY,10305,40.587372000000016,-74.090997
JPMorgan Chase Bank,Downtown Flushing,Full Service Brick and Mortar Office,39-01 Main Street,Flushing,NY,11354,40.7600064163252,-73.8303159508628
JPMorgan Chase Bank,Dyckman Street,Full Service Brick and Mortar Office,161 Dyckman Street,New York,NY,10040,40.863803594235044,-73.92612751497498
JPMorgan Chase Bank,Dyker Heights,Full Service Brick and Mortar Office,7702 13th Avenue,Brooklyn,NY,11228,40.618997643083794,-74.00882074438796
JPMorgan Chase Bank,E 98th St Brooklyn,Full Service Brick and Mortar Office,86 East 98th Street,Brooklyn,NY,11212,40.6646200799239,-73.92254917513989
JPMorgan Chase Bank,East Boston Post Road,Full Service Brick and Mortar Office,535 East Boston Post Road,Mamaroneck,NY,10543,40.95125016290621,-73.72872228475394
JPMorgan Chase Bank,East Elmhurst And 31st Ave,Full Service Brick and Mortar Office,77-01 31st Avenue,East Elmhurst,NY,11370,40.75879952513119,-73.89040358021235
JPMorgan Chase Bank,East End,Full Service Brick and Mortar Office,1495 York Avenue,New York,NY,10075,40.77159963142703,-73.95032268763336
JPMorgan Chase Bank,East Farmingdale,Full Service Brick and Mortar Office,1745 Broad Hollow Road,Farmingdale,NY,11735,40.744485,-73.422243
JPMorgan Chase Bank,East Flushing,Full Service Brick and Mortar Office,196-03 Northern Boulevard,Flushing,NY,11358,40.757974259795645,-73.78545023757863
JPMorgan Chase Bank,East Fordham & 3rd Avenue,Full Service Brick and Mortar Office,4780 Third Avenue,Bronx,NY,10458,40.86065715791454,-73.8905614479486
JPMorgan Chase Bank,East Fordham,Full Service Brick and Mortar Office,257 E Fordham Rd,Bronx,NY,10458,40.86219954039464,-73.89544697515726
JPMorgan Chase Bank,East Hampton,Full Service Brick and Mortar Office,66 Main Street,East Hampton,NY,11937,40.96248580935455,-72.18632516400871
JPMorgan Chase Bank,East Harlem,Full Service Brick and Mortar Office,179 E 116th St,New York,NY,10029,40.79817292229782,-73.94046544157196
JPMorgan Chase Bank,East Hills,Full Service Brick and Mortar Office,425 Glen Cove Road,Roslyn Heights,NY,11577,40.78562568192926,-73.62239880232893
JPMorgan Chase Bank,East Meadow,Full Service Brick and Mortar Office,2469 Hempstead Turnpike,East Meadow,NY,11554,40.72507200000001,-73.544508
JPMorgan Chase Bank,East Meadow Plaza,Full Service Brick and Mortar Office,1960 Hempstead Turnpike,East Meadow,NY,11554,40.72259700000001,-73.564281
JPMorgan Chase Bank,East Northportlarkfield Rd,Full Service Brick and Mortar Office,271 Larkfield Road,East Northport,NY,11731,40.87532800528014,-73.32420100955062
JPMorgan Chase Bank,East Norwich Banking Ctr.,Full Service Brick and Mortar Office,6311 Northern Boulevard,East Norwich,NY,11732,40.842365927866396,-73.5348727507646
JPMorgan Chase Bank,East Rochester Fairport Road,Full Service Brick and Mortar Office,865 Fairport Road,East Rochester,NY,14445,43.10210699999999,-77.482269
JPMorgan Chase Bank,East Rockaway Banking Center,Full Service Brick and Mortar Office,111 Main St,East Rockaway,NY,11518,40.641220698568965,-73.66496874577294
JPMorgan Chase Bank,East Tremont,Full Service Brick and Mortar Office,695 East Tremont Avenue,Bronx,NY,10457,40.8455432334237,-73.89131004509784
JPMorgan Chase Bank,East Village,Full Service Brick and Mortar Office,156 Second Ave,New York,NY,10003,40.72964452455428,-73.98687695960537
JPMorgan Chase Bank,Eastchester,Full Service Brick and Mortar Office,360 White Plains Road,Eastchester,NY,10709,40.952916000000016,-73.8150075
JPMorgan Chase Bank,Eastern Parkway,Full Service Brick and Mortar Office,391 Eastern Parkway,Brooklyn,NY,11216,40.67053200000001,-73.955457
JPMorgan Chase Bank,Eastway,Full Service Brick and Mortar Office,1950 Empire Boulevard,Webster,NY,14580,43.19211840746705,-77.50275999991308
JPMorgan Chase Bank,Eighth Ave,Full Service Brick and Mortar Office,238 Eighth Ave,New York,NY,10011,40.74478741742171,-73.99881817317798
JPMorgan Chase Bank,Eighth Ave And 15th,Full Service Brick and Mortar Office,111 8th Ave,New York,NY,10011,40.74136200000001,-74.003211
JPMorgan Chase Bank,Eighty Sixth St And 19th,Full Service Brick and Mortar Office,1901 86th Street,Brooklyn,NY,11214,40.60581612129948,-74.0002032665763
JPMorgan Chase Bank,Eliot Ave,Full Service Brick and Mortar Office,74-07 Eliot Ave,Middle Village,NY,11379,40.72216492535624,-73.88540002498696
JPMorgan Chase Bank,Elmhurst Queens Blvd,Full Service Brick and Mortar Office,8921 Queens Boulevard,Elmhurst,NY,11373,40.73468101333021,-73.8736964635005
JPMorgan Chase Bank,Elmsford Main St,Full Service Brick and Mortar Office,20 East Main Street,Elmsford,NY,10523,41.05466580785737,-73.8192975672477
JPMorgan Chase Bank,Eltingville,Full Service Brick and Mortar Office,4385 Amboy Rd,Staten Island,NY,10312,40.54476162894553,-74.16166871830448
JPMorgan Chase Bank,Empire Boulevard,Full Service Brick and Mortar Office,1000 Nostrand Avenue,Brooklyn,NY,11225,40.664070104910856,-73.95099809077259
JPMorgan Chase Bank,Empire State,Full Service Brick and Mortar Office,349 Fifth Avenue And 34th Street,New York,NY,10016,40.65406200000001,-74.00097
JPMorgan Chase Bank,Exxon Building,Full Service Brick and Mortar Office,1251 Avenue Of The Americas,New York,NY,10020,40.75982100000002,-73.981206
JPMorgan Chase Bank,Fairmount,Full Service Brick and Mortar Office,3508 West Genesee Street,Syracuse,NY,13219,43.04872800000001,-76.232646
JPMorgan Chase Bank,Far Rockaway,Full Service Brick and Mortar Office,1912 Mott Avenue,Far Rockaway,NY,11691,40.60376046517395,-73.75197604218364
JPMorgan Chase Bank,Farmingdale Banking Center,Full Service Brick and Mortar Office,334 Main Street,Farmingdale,NY,11735,40.731647857060445,-73.44571652305372
JPMorgan Chase Bank,Farmingville,Full Service Brick and Mortar Office,2430 North Ocean Avenue,Farmingville,NY,11738,40.8296881470945,-73.02123797033849
JPMorgan Chase Bank,Fifth Ave And 54th,Full Service Brick and Mortar Office,5323 Fifth Avenue,Brooklyn,NY,11220,40.643007370794685,-74.01244418858565
JPMorgan Chase Bank,Fifth Avenue & 44th Street Banking C,Limited Service Facility Office,"530 Fifth Avenue, 1st Flr",New York,NY,10036,40.755168,-73.9798875
JPMorgan Chase Bank,Fifth Avenue And 21st Street,Full Service Brick and Mortar Office,162 Fifth Avenue,New York,NY,10010,40.74038830197927,-73.99045768471917
JPMorgan Chase Bank,Fifth Avenue And 27th Street,Full Service Brick and Mortar Office,225 5th Avenue,New York,NY,10010,40.74377005078198,-73.98793199748984
JPMorgan Chase Bank,Fifth Avenue,Full Service Brick and Mortar Office,533 5th Avenue,Brooklyn,NY,11215,40.66627441381503,-73.98868066305043
JPMorgan Chase Bank,First Ave And 44th St,Full Service Brick and Mortar Office,1 United Nations Plaza,New York,NY,10017,40.75030799999999,-73.9690785
JPMorgan Chase Bank,First Avenue & 72nd Street,Full Service Brick and Mortar Office,360 East 72nd Street,New York,NY,10021,40.767776999999995,-73.9563435
JPMorgan Chase Bank,Fishkill And Merritt Blvd,Full Service Brick and Mortar Office,15 Merritt Boulevard,Fishkill,NY,12524,41.53124700000001,-73.893483
JPMorgan Chase Bank,Fit Seventh Avenue,Full Service Brick and Mortar Office,305 Seventh Avenue,New York,NY,10001,40.746645,-73.9933695
JPMorgan Chase Bank,Flatbush,Full Service Brick and Mortar Office,883 Flatbush Avenue,Brooklyn,NY,11226,40.65060780183506,-73.95873152371755
JPMorgan Chase Bank,Flatbush,Full Service Brick and Mortar Office,1101 Avenue J,Brooklyn,NY,11230,40.624827379969936,-73.96490336955392
JPMorgan Chase Bank,Flatlands,Full Service Brick and Mortar Office,1987 Flatbush Avenue,Brooklyn,NY,11234,40.621321015551906,-73.93543434234525
JPMorgan Chase Bank,Fleetwood,Full Service Brick and Mortar Office,511 Gramatan Avenue,Mount Vernon,NY,10552,40.92463003338899,-73.83624879722733
JPMorgan Chase Bank,Flushing Avenue,Full Service Brick and Mortar Office,210 Flushing Avenue,Brooklyn,NY,11205,40.69766917984309,-73.96743597377228
JPMorgan Chase Bank,Flushing Main St,Full Service Brick and Mortar Office,36-63 Main Street,Flushing,NY,11354,40.761702000000014,-73.831032
JPMorgan Chase Bank,Flushing Skyview Center,Full Service Brick and Mortar Office,4028 College Point Blvd,Flushing,NY,11354,40.75686000000002,-73.835073
JPMorgan Chase Bank,Flushing Union Turnpike Banking Cent,Full Service Brick and Mortar Office,14417 Union Turnpike,Flushing,NY,11367,40.717941998066756,-73.8164851604247
JPMorgan Chase Bank,Forest Avenue Livermore,Full Service Brick and Mortar Office,1480 Forest Avenue,Staten Island,NY,10302,40.62422195086279,-74.13793105176293
JPMorgan Chase Bank,Forest Hills 71st Ave,Full Service Brick and Mortar Office,107-36 71st Avenue,Forest Hills,NY,11375,40.721093999999994,-73.84400099999999
JPMorgan Chase Bank,Forest Hills,Full Service Brick and Mortar Office,9900 Metropolitan Avenue,Forest Hills,NY,11375,40.71087726144042,-73.85354654232788
JPMorgan Chase Bank,Fort Hamilton Pkwy And 65th St Branc,Full Service Brick and Mortar Office,6501 Ft Hamilton Pkwy,Brooklyn,NY,11219,40.63052727364545,-74.00935521911254
JPMorgan Chase Bank,Fort Salonga,Full Service Brick and Mortar Office,2 Fort Salonga Road,Northport,NY,11768,40.91240771066659,-73.30063795327891
JPMorgan Chase Bank,Fort Washington Avenue,Full Service Brick and Mortar Office,596 Fort Washington Avenue,New York,NY,10033,40.85505180238332,-73.93687620231988
JPMorgan Chase Bank,Foster Avenue,Full Service Brick and Mortar Office,9601 Foster Avenue,Brooklyn,NY,11236,40.647855791851725,-73.90646231432854
JPMorgan Chase Bank,Fourth Ave And 51st Street,Full Service Brick and Mortar Office,5101 Fourth Avenue,Brooklyn,NY,11220,40.645719000000014,-74.013057
JPMorgan Chase Bank,Francis Lewis Blvd,Full Service Brick and Mortar Office,32-45 Francis Lewis Blvd,Flushing,NY,11358,40.7678165392981,-73.79079906339103
JPMorgan Chase Bank,Franklin Gate,Full Service Brick and Mortar Office,654 Franklin Avenue,Franklin Square,NY,11010,40.69041307190248,-73.68516002807404
JPMorgan Chase Bank,Franklin Square Banking Center Branc,Full Service Brick and Mortar Office,925 Hempstead Turnpike,Franklin Square,NY,11010,40.707044999999994,-73.67458049999999
JPMorgan Chase Bank,Frederick Douglass Boulevard,Full Service Brick and Mortar Office,2195 Frederick Douglas Boulevard,New York,NY,10026,40.80631500000001,-73.9542195
JPMorgan Chase Bank,Freeport And Main St,Full Service Brick and Mortar Office,25 South Main Street,Freeport,NY,11520,40.65661800000001,-73.5820785
JPMorgan Chase Bank,Fresh Meadows,Full Service Brick and Mortar Office,187-08 Horace Harding Expressway,Fresh Meadows,NY,11365,40.74025941899881,-73.78762352850397
JPMorgan Chase Bank,Fresh Pond Rd,Full Service Brick and Mortar Office,6694 Fresh Pond Rd,Ridgewood,NY,11385,40.70593915292288,-73.89667673134622
JPMorgan Chase Bank,Ft Greene,Full Service Brick and Mortar Office,402 Myrtle Ave,Brooklyn,NY,11205,40.69308918567147,-73.96961198834323
JPMorgan Chase Bank,Fulton And Bond St,Full Service Brick and Mortar Office,490 Fulton St,Brooklyn,NY,11201,40.689791602544936,-73.9832824432454
JPMorgan Chase Bank,Garment Center,Full Service Brick and Mortar Office,1411 Broadway,New York,NY,10018,40.75400966056893,-73.9869947004153
JPMorgan Chase Bank,Garnerville,Full Service Brick and Mortar Office,58 West Ramapo Road,Garnerville,NY,10923,41.19874375800662,-74.00947842301895
JPMorgan Chase Bank,Gates Banking Center,Full Service Brick and Mortar Office,6 Spencerport Road,Rochester,NY,14606,43.165610902071364,-77.69298097250287
JPMorgan Chase Bank,Gateway Plaza,Full Service Brick and Mortar Office,331-337 South End Avenue,New York,NY,10280,40.71078943963873,-74.01614307175824
JPMorgan Chase Bank,Gedney,Full Service Brick and Mortar Office,501 Mamaroneck Avenue,White Plains,NY,10605,41.022549,-73.75869
JPMorgan Chase Bank,Glen Cove,Full Service Brick and Mortar Office,195c Forest Ave,Glen Cove,NY,11542,40.87408819288382,-73.61895372686536
JPMorgan Chase Bank,Glen Head Banking Center,Full Service Brick and Mortar Office,240 Glen Head Road,Glen Head,NY,11545,40.836018244012585,-73.61917616417561
JPMorgan Chase Bank,Glen Oaks,Full Service Brick and Mortar Office,256-21 Union Turnpike,Glen Oaks,NY,11004,40.74575147406074,-73.71452137844072
JPMorgan Chase Bank,Glendale Woodhaven,Full Service Brick and Mortar Office,71-04 Woodhaven Boulevard,Ridgewood,NY,11385,40.711670999999996,-73.860129
JPMorgan Chase Bank,Gm Building Banking Center,Full Service Brick and Mortar Office,610 Madison Avenue,New York,NY,10022,40.76307612851284,-73.97181776270982
JPMorgan Chase Bank,Goshen Banking Center,Full Service Brick and Mortar Office,100 Canal Street,Goshen,NY,10924,41.40300556953653,-74.32605621746775
JPMorgan Chase Bank,Gracie Square,Full Service Brick and Mortar Office,453 East 86th Street,New York,NY,10028,40.77625499999999,-73.947132
JPMorgan Chase Bank,Graham Ave And Broadway,Full Service Brick and Mortar Office,12 Graham Avenue,Brooklyn,NY,11206,40.70123100000001,-73.94202899999999
JPMorgan Chase Bank,Gramercy Park,Full Service Brick and Mortar Office,233 Third Avenue,New York,NY,10003,40.73660431167414,-73.98473385968616
JPMorgan Chase Bank,Grand Army Plaza,Full Service Brick and Mortar Office,401 Flatbush Avenue,Brooklyn,NY,11238,40.67564255343638,-73.97131179488149
JPMorgan Chase Bank,Grand Ave And 66th St,Full Service Brick and Mortar Office,66-02 Grand Avenue,Maspeth,NY,11378,40.724118000000004,-73.89846
JPMorgan Chase Bank,Grand Central Place,Full Service Brick and Mortar Office,60 East 42nd Street,New York,NY,10165,40.75228799999999,-73.9784655
JPMorgan Chase Bank,Grand Central Terminal,Limited Service Retail Office,89-105 East 42nd Street,New York,NY,10017,40.75233299999999,-73.9773495
JPMorgan Chase Bank,Grand Meekman Banking Center,Full Service Brick and Mortar Office,900 1st Avenue,New York,NY,10022,40.75431506466045,-73.9657874188067
JPMorgan Chase Bank,Grand St And Graham,Full Service Brick and Mortar Office,726 Grand Street,Brooklyn,NY,11211,40.711630160136245,-73.94364363044608
JPMorgan Chase Bank,Grand Street,Full Service Brick and Mortar Office,231 Grand Street,New York,NY,10013,40.718555717727575,-73.99514533389114
JPMorgan Chase Bank,Grasmere,Full Service Brick and Mortar Office,1151 Hylan Boulevard,Staten Island,NY,10305,40.598651303652716,-74.08124885276126
JPMorgan Chase Bank,Grasslands,Full Service Brick and Mortar Office,1150 Knollwood Road,White Plains,NY,10603,41.07170788037397,-73.79977643355053
JPMorgan Chase Bank,Great Neck,Full Service Brick and Mortar Office,675 Middle Neck Road,Great Neck,NY,11023,40.80487500000001,-73.73519299789386
JPMorgan Chase Bank,Great Neck,Full Service Brick and Mortar Office,60 Great Neck Road,Great Neck,NY,11021,40.785532733539256,-73.72850518483475
JPMorgan Chase Bank,Great Neck Northern Boulevard,Full Service Brick and Mortar Office,410 Northern Boulevard,Great Neck,NY,11021,40.77947406797866,-73.72232909449484
JPMorgan Chase Bank,Great Neck Plaza,Full Service Brick and Mortar Office,22 Grace Avenue,Great Neck,NY,11021,40.78836900000002,-73.726713
JPMorgan Chase Bank,Greece Long Pond,Full Service Brick and Mortar Office,690 Long Pond Road,Rochester,NY,14612,43.252128,-77.6958705
JPMorgan Chase Bank,Green Acres West,Full Service Brick and Mortar Office,1200 West Walk (Green Acres Mall),Valley Stream,NY,11582,40.662354866495505,-73.7174359177675
JPMorgan Chase Bank,Greenburgh,Full Service Brick and Mortar Office,409 Tarrytown Rd,White Plains,NY,10607,41.04315668772027,-73.79787129531418
JPMorgan Chase Bank,Greenlawn,Full Service Brick and Mortar Office,80 Broadway,Greenlawn,NY,11740,40.868319603670116,-73.36477618898968
JPMorgan Chase Bank,Greenpoint,Full Service Brick and Mortar Office,798 Manhattan Avenue,Brooklyn,NY,11222,40.727673439090466,-73.95298247833125
JPMorgan Chase Bank,Greenport,Full Service Brick and Mortar Office,238 Main Street,Greenport,NY,11944,41.10334174799466,-72.35942651053159
JPMorgan Chase Bank,Greenvale,Full Service Brick and Mortar Office,57 Northern Boulevard,Greenvale,NY,11548,40.81136245770079,-73.62248536678396
JPMorgan Chase Bank,Greenwich Village,Full Service Brick and Mortar Office,340 Avenue Of The Americas,New York,NY,10011,40.731821999999994,-74.000646
JPMorgan Chase Bank,Greenwood Lake,Full Service Brick and Mortar Office,138 Windemere Avenue,Greenwood Lake,NY,10925,41.226871950814214,-74.28968317685975
JPMorgan Chase Bank,Gun Hill,Full Service Brick and Mortar Office,1308 East Gun Hill Road,Bronx,NY,10469,40.87148783568017,-73.84825162406943
JPMorgan Chase Bank,Gun Hill Road,Full Service Brick and Mortar Office,1650 Gun Hill Road,Bronx,NY,10469,40.86629927863711,-73.83828218541166
JPMorgan Chase Bank,Halstead And Osborn,Full Service Brick and Mortar Office,402 Halstead Avenue,Harrison,NY,10528,40.96994641883536,-73.70743174132954
JPMorgan Chase Bank,Halston And Harrison,Full Service Brick and Mortar Office,275 Halstead Avenue,Harrison,NY,10528,40.96871999999999,-73.7125605
JPMorgan Chase Bank,Hampton Bays,Full Service Brick and Mortar Office,47 West Montauk Highway,Hampton Bays,NY,11946,40.877554969156,-72.5252313934157
JPMorgan Chase Bank,Harlem Metro North,Full Service Brick and Mortar Office,103 E 125th St,New York,NY,10035,40.80491596531817,-73.93863195614291
JPMorgan Chase Bank,Hartsdale,Full Service Brick and Mortar Office,232 East Hartsdale Avenue,Hartsdale,NY,10530,41.01115848793921,-73.79630797587842
JPMorgan Chase Bank,Hasting,Full Service Brick and Mortar Office,565 Warburton Avenue,Hastings On Hudson,NY,10706,40.99568064500671,-73.88222808332601
JPMorgan Chase Bank,Hauppauge,Full Service Brick and Mortar Office,200 Motor Parkway,Hauppauge,NY,11788,40.807782,-73.25487
JPMorgan Chase Bank,Hauppauge East,Full Service Brick and Mortar Office,546 Rte 111,Hauppauge,NY,11788,40.827023999999994,-73.201914
JPMorgan Chase Bank,Havemeyer And Broadway,Full Service Brick and Mortar Office,225 Havemeyer Street,Brooklyn,NY,11211,40.70912669302906,-73.95907432486011
JPMorgan Chase Bank,Heathcote,Full Service Brick and Mortar Office,20 Palmer Avenue,Scarsdale,NY,10583,40.98474061974161,-73.7745290158117
JPMorgan Chase Bank,Hempstead Fulton,Full Service Brick and Mortar Office,136 Fulton Avenue,Hempstead,NY,11550,40.70623499999999,-73.6316865
JPMorgan Chase Bank,Hempstead Tpke And Randal,Full Service Brick and Mortar Office,4276 Hempstead Turnpike,Bethpage,NY,11714,40.725018000000006,-73.4792355
JPMorgan Chase Bank,Henrietta,Full Service Brick and Mortar Office,1575 East Henrietta Road,Rochester,NY,14623,43.08943766276197,-77.61012542122995
JPMorgan Chase Bank,Hewlett And Peninsula,Full Service Brick and Mortar Office,1735 Peninsula Boulevard,Hewlett,NY,11557,40.64936399999999,-73.689876
JPMorgan Chase Bank,Hicksville,Full Service Brick and Mortar Office,284 North Broadway,Hicksville,NY,11801,40.77869412764747,-73.53062680076718
JPMorgan Chase Bank,Hicksville North Broadway,Full Service Brick and Mortar Office,249 North Broadway,Hicksville,NY,11801,40.776786000000016,-73.528668
JPMorgan Chase Bank,Hillcrest North Main,Full Service Brick and Mortar Office,269 North Main Street,Spring Valley,NY,10977,41.12804075520801,-74.04109350086537
JPMorgan Chase Bank,Hillside Avenue Banking Ctr,Full Service Brick and Mortar Office,175 - 62 Hillside Avenue,Jamaica,NY,11432,40.71215810101572,-73.78569801012755
JPMorgan Chase Bank,Holbrook,Full Service Brick and Mortar Office,991 Main Street,Holbrook,NY,11741,40.808195315886415,-73.07524144890088
JPMorgan Chase Bank,Holliswood,Full Service Brick and Mortar Office,205-19 Hillside Avenue,Hollis,NY,11423,40.72130100000001,-73.7599275
JPMorgan Chase Bank,Hopewell Junction,Full Service Brick and Mortar Office,817 Route 82,Hopewell Junction,NY,12533,41.57932500000001,-73.8115155
JPMorgan Chase Bank,Hough & Guidece Realty Rep,Limited Service Administrative Office,465-2 Smithtown Boulevard,Nesconset,NY,11767,40.833527396878175,-73.14671134762537
JPMorgan Chase Bank,Howard Beach Banking Center,Full Service Brick and Mortar Office,156-33 Cross Bay Boulevard,Howard Beach,NY,11414,40.663171945645146,-73.84069872374636
JPMorgan Chase Bank,Hudson Street,Full Service Brick and Mortar Office,345 Hudson Street,New York,NY,10014,40.72773599999999,-74.0074365
JPMorgan Chase Bank,Hunters Point,Full Service Brick and Mortar Office,10-51 Jackson Avenue,Long Island City,NY,11101,40.742547809336884,-73.95269329753587
JPMorgan Chase Bank,Huntington,Full Service Brick and Mortar Office,350 Main Street,Huntington,NY,11743,40.870476,-73.430514
JPMorgan Chase Bank,Huntington Square Mall,Full Service Brick and Mortar Office,17 Huntington Square Mall,East Northport,NY,11731,40.8395230418937,-73.32086267848271
JPMorgan Chase Bank,Hunts Point,Full Service Brick and Mortar Office,1355 Oak Point Avenue,Bronx,NY,10474,40.810689522909485,-73.8832219730798
JPMorgan Chase Bank,Hyde Park,Full Service Brick and Mortar Office,4277 Albany Post Road,Hyde Park,NY,12538,41.78338200000002,-73.933182
JPMorgan Chase Bank,Hylan Plaza,Full Service Brick and Mortar Office,2626 Hylan Boulevard,Staten Island,NY,10306,40.56792054870452,-74.11218054870452
JPMorgan Chase Bank,Ibm Corp Cashier,Limited Service Mobile Office,Long Meadow Road,Sterling Forest,NY,10979,41.17869501857063,-74.2569317200133
JPMorgan Chase Bank,Industrial Park,Full Service Brick and Mortar Office,6004 Court Street,Syracuse,NY,13206,43.08145200000001,-76.1027355
JPMorgan Chase Bank,Investor 2018,Full Service Brick and Mortar Office,270 Park Ave,New York,NY,10017,40.75559343992718,-73.97523992550045
JPMorgan Chase Bank,Irondequoit East,Full Service Brick and Mortar Office,1982 Ridge Road East,Rochester,NY,14622,43.203096000000016,-77.56470449999999
JPMorgan Chase Bank,Irondequoit Mall,Limited Service Retail Office,88 Irondequoit Mall Drive,Rochester,NY,14622,43.17188763767598,-77.59203441383617
JPMorgan Chase Bank,Irondequoit West,Full Service Brick and Mortar Office,674 Titus Avenue,Rochester,NY,14617,43.210971,-77.59861649999999
JPMorgan Chase Bank,Irvington,Full Service Brick and Mortar Office,45 Main Street #47,Irvington,NY,10533,41.03954284292217,-73.87038069164407
JPMorgan Chase Bank,Island Park,Full Service Brick and Mortar Office,212 Long Beach Road,Island Park,NY,11558,40.60292744685207,-73.65576224190646
JPMorgan Chase Bank,Islandia,Full Service Brick and Mortar Office,1455 Veterans Highway,Islandia,NY,11749,40.81175739886871,-73.1883606676094
JPMorgan Chase Bank,Islip,Full Service Brick and Mortar Office,556 Main Street,Islip,NY,11751,40.72931808407883,-73.213067525391
JPMorgan Chase Bank,Jackson Heights,Full Service Brick and Mortar Office,37-15 82nd Street,Jackson Heights,NY,11372,40.7491814701656,-73.88418458644476
JPMorgan Chase Bank,Jamaica Avenue & 89th,Full Service Brick and Mortar Office,8819 Jamaica Avenue,Woodhaven,NY,11421,40.69281599999999,-73.8557325
JPMorgan Chase Bank,Jamaica,Full Service Brick and Mortar Office,161-10 Jamaica Avenue,Jamaica,NY,11432,40.70402100000001,-73.798011
JPMorgan Chase Bank,Jamaica Estates,Full Service Brick and Mortar Office,184-01 Hillside Avenue,Jamaica,NY,11432,40.71413574156308,-73.7779522744295
JPMorgan Chase Bank,James Street,Full Service Brick and Mortar Office,801 James Street,Syracuse,NY,13203,43.056692999999996,-76.140468
JPMorgan Chase Bank,Javits Convention Center,Limited Service Mobile Office,655 West 34th Street,New York,NY,10001,40.757093999999995,-74.004435
JPMorgan Chase Bank,Jay Street & Front St Bnkg Ctr Branc,Full Service Brick and Mortar Office,136 Front Street,Brooklyn,NY,11201,40.702396788504856,-73.9871259045242
JPMorgan Chase Bank,Jefferson Valley Mall,Full Service Brick and Mortar Office,720 Lee Blvd At Route 6,Yorktown Heights,NY,10598,41.331222,-73.81017
JPMorgan Chase Bank,Jericho Turnpike,Full Service Brick and Mortar Office,2360 Jericho Tpke,New Hyde Park,NY,11040,40.742181000000016,-73.659519
JPMorgan Chase Bank,Jew. Home & Hosp. Mobile Tel.,Limited Service Mobile Office,100 West Kingsbridge Road,Bronx,NY,10468,40.86855620370486,-73.90210518818162
JPMorgan Chase Bank,Junction Boulevard,Full Service Brick and Mortar Office,37-29 Junction Boulevard,Corona,NY,11368,40.750663997230035,-73.8702680770097
JPMorgan Chase Bank,Katonah,Full Service Brick and Mortar Office,140 Katonah Avenue,Katonah,NY,10536,41.25772675353458,-73.68399879695896
JPMorgan Chase Bank,Kew Gardens,Full Service Brick and Mortar Office,118-30 Queens Boulevard,Forest Hills,NY,11375,40.714488964741264,-73.83176231432853
JPMorgan Chase Bank,Kew Gardens,Full Service Brick and Mortar Office,81-35 Lefferts Boulevard,Kew Gardens,NY,11415,40.70858762531018,-73.83065155438867
JPMorgan Chase Bank,Kew Gardens Hills,Full Service Brick and Mortar Office,71-41 Main Street,Flushing,NY,11367,40.72688976908647,-73.82177523881938
JPMorgan Chase Bank,Kings Highway,Full Service Brick and Mortar Office,1663 East 17th Street,Brooklyn,NY,11229,40.609263446852076,-73.95641223729017
JPMorgan Chase Bank,Kings Hwy & Convey Island Avenue Ban,Full Service Brick and Mortar Office,1100 Kings Hwy,Brooklyn,NY,11229,40.60737275630452,-73.9616888978591
JPMorgan Chase Bank,Kings Hwy And E 2nd St,Full Service Brick and Mortar Office,506 Kings Hwy,Brooklyn,NY,11223,40.60426607992388,-73.97119290813089
JPMorgan Chase Bank,Kings Park,Full Service Brick and Mortar Office,38 Indian Head Road,Kings Park,NY,11754,40.882743000000005,-73.254042
JPMorgan Chase Bank,Kings Plaza,Full Service Brick and Mortar Office,5136 Kings Plaza,Brooklyn,NY,11234,40.61020500000001,-73.92154049999999
JPMorgan Chase Bank,Kingsbridge Road,Full Service Brick and Mortar Office,66 East Kingsbridge Road,Bronx,NY,10468,40.86651599999999,-73.89567
JPMorgan Chase Bank,Kingsbridge Transactor,Limited Service Retail Office,2 East Kingsbridge Road,Bronx,NY,10468,40.86739296113458,-73.89726415751052
JPMorgan Chase Bank,Kingston Plaza,Full Service Brick and Mortar Office,256 Plaza Road,Kingston,NY,12401,41.937444,-74.0178585
JPMorgan Chase Bank,Kirby Plaza,Full Service Brick and Mortar Office,16 E Main St,Mount Kisco,NY,10549,41.20866241580709,-73.72841195286239
JPMorgan Chase Bank,Knolls Crescent,Full Service Brick and Mortar Office,13b Knolls Crescent,Bronx,NY,10463,40.87884630585523,-73.91724379802602
JPMorgan Chase Bank,Krasdale Foods Corp Cashier,Limited Service Mobile Office,"400 Food Center Drive, Hunts Point",Bronx,NY,10474,40.80741951938173,-73.87113156725763
JPMorgan Chase Bank,Lake Ronkonkoma,Full Service Brick and Mortar Office,601 Portion Road Lake Shore Plaza,Ronkonkoma,NY,11779,40.831229717813535,-73.08877149446008
JPMorgan Chase Bank,Lake Success,Full Service Brick and Mortar Office,2335 New Hyde Park Road,New Hyde Park,NY,11042,40.75814893865778,-73.6887520858096
JPMorgan Chase Bank,Larchmont,Full Service Brick and Mortar Office,125 Chatsworth Avenue,Larchmont,NY,10538,40.93287575321769,-73.75862812837224
JPMorgan Chase Bank,Laurelton Banking Centger,Full Service Brick and Mortar Office,231-02 Merrick Boulevard,Springfield Gardens,NY,11413,40.67563550346246,-73.73926060283338
JPMorgan Chase Bank,Lawrence Rockaway,Full Service Brick and Mortar Office,335 Rockaway Tpke,Lawrence,NY,11559,40.62665247486883,-73.73654667017688
JPMorgan Chase Bank,Lefferts Boulevard,Full Service Brick and Mortar Office,103-48 Lefferts Boulevard,South Richmond Hill,NY,11419,40.68663557784642,-73.82439566209814
JPMorgan Chase Bank,Levittown Banking Center,Full Service Brick and Mortar Office,3737 Hempstead Turnpike,Levittown,NY,11756,40.72611599999999,-73.4970195
JPMorgan Chase Bank,Levittown Parkway,Full Service Brick and Mortar Office,681 Newbridge Road,Levittown,NY,11756,40.74232757620165,-73.53586594745767
JPMorgan Chase Bank,Lexington And 69th St. Bkg. Ctr. Bra,Full Service Brick and Mortar Office,941 Lexington Avenue,New York,NY,10065,40.76837561059502,-73.96366644142773
JPMorgan Chase Bank,Lexington Avenue & 72nd Street Branc,Full Service Brick and Mortar Office,1003 Lexington Avenue,New York,NY,10021,40.7706764568354,-73.96198993199266
JPMorgan Chase Bank,Liberty Ave And Drew St,Full Service Brick and Mortar Office,1240 Liberty Avenue,Brooklyn,NY,11208,40.67903353260436,-73.863648
JPMorgan Chase Bank,Lincoln Center,Full Service Brick and Mortar Office,110 West Fayette Street,Syracuse,NY,13202,43.048925999999994,-76.15306799999999
JPMorgan Chase Bank,Lindenhurst,Full Service Brick and Mortar Office,166 South Wellwood Avenue,Lindenhurst,NY,11757,40.68596337359329,-73.37246881014492
JPMorgan Chase Bank,Lindenhurst,Full Service Brick and Mortar Office,655 North Wellwood Avenue,Lindenhurst,NY,11757,40.70149006079656,-73.38466805324532
JPMorgan Chase Bank,Lindenwood,Full Service Brick and Mortar Office,"8239 153rd Ave, Ste B",Howard Beach,NY,11414,40.66624539832047,-73.85106476325808
JPMorgan Chase Bank,Little Neck,Full Service Brick and Mortar Office,252-34 Northern Boulevard,Little Neck,NY,11362,40.770550247561964,-73.7355515405102
JPMorgan Chase Bank,Liverpool,Full Service Brick and Mortar Office,4169 Elmcrest Road,Liverpool,NY,13090,43.135964545703416,-76.22602877338564
JPMorgan Chase Bank,Locust Valley Banking Center,Full Service Brick and Mortar Office,85 Forest Avenue,Locust Valley,NY,11560,40.875622608633115,-73.59896294018698
JPMorgan Chase Bank,London Terrace,Full Service Brick and Mortar Office,475 West 23rd Street,New York,NY,10011,40.74762003748046,-74.00392963835193
JPMorgan Chase Bank,Long Beach,Full Service Brick and Mortar Office,220 E Park Ave,Long Beach,NY,11561,40.58840834274928,-73.65698577768481
JPMorgan Chase Bank,Madison & 79th Street,Full Service Brick and Mortar Office,1025 Madison Avenue,New York,NY,10075,40.775931000000014,-73.961946
JPMorgan Chase Bank,Madison And 64th St,Full Service Brick and Mortar Office,726 Madison Ave,New York,NY,10065,40.76650271885274,-73.96932137344906
JPMorgan Chase Bank,Madison Ave And 38th St,Full Service Brick and Mortar Office,260 Madison Ave,New York,NY,10016,40.75065000000001,-73.9810305
JPMorgan Chase Bank,Madison Ave And 47th St,Full Service Brick and Mortar Office,390 Madison Avenue,New York,NY,10017,40.75566800750182,-73.97722407536492
JPMorgan Chase Bank,Madison Avenue & 72nd Street,Full Service Brick and Mortar Office,35 East 72nd Street,New York,NY,10021,40.77163827145239,-73.96501439272322
JPMorgan Chase Bank,Madison Avenue & 86th Street,Full Service Brick and Mortar Office,12 East 86th Street,New York,NY,10028,40.78110894503442,-73.95947479239999
JPMorgan Chase Bank,Madison Avenue And 64th St,Full Service Brick and Mortar Office,726 Madison Avenue,New York,NY,10065,40.76650271885274,-73.96932137344906
JPMorgan Chase Bank,Madison Square Garden,Full Service Brick and Mortar Office,2 Pennsylvania Plaza,New York,NY,10001,40.750737156040046,-73.99219691970437
JPMorgan Chase Bank,Main Mall,Full Service Brick and Mortar Office,285 Main St,Poughkeepsie,NY,12601,41.70368170803269,-73.92745350568416
JPMorgan Chase Bank,Main St And 41st Ave,Full Service Brick and Mortar Office,4042 Main St,Flushing,NY,11354,40.758354,-73.8299115
JPMorgan Chase Bank,Malverne,Full Service Retail Office,368 Hempstead Avenue,Malverne,NY,11565,40.67750699999999,-73.667232
JPMorgan Chase Bank,Mamaroneck,Full Service Brick and Mortar Office,242 Mamaroneck Avenue,Mamaroneck,NY,10543,40.95055550816565,-73.73416034153719
JPMorgan Chase Bank,Manhasset,Full Service Brick and Mortar Office,330 Plandome Road,Manhasset,NY,11030,40.79735099999999,-73.69933499999999
JPMorgan Chase Bank,Manlius,Full Service Brick and Mortar Office,329 Fayette Street,Manlius,NY,13104,43.00554869412558,-75.98406861783702
JPMorgan Chase Bank,Manor Road,Full Service Brick and Mortar Office,754 Manor Road,Staten Island,NY,10314,40.608116979456454,-74.12108410216955
JPMorgan Chase Bank,Maple Avenue,Full Service Brick and Mortar Office,285 Maple Avenue,White Plains,NY,10606,41.02186001359001,-73.77495212072256
JPMorgan Chase Bank,Mapleton,Full Service Brick and Mortar Office,6501 18th Avenue,Brooklyn,NY,11204,40.6189845792314,-73.9902915792314
JPMorgan Chase Bank,Marathon Pkwy,Full Service Brick and Mortar Office,5621 Marathon Pkwy,Little Neck,NY,11362,40.75986600000002,-73.731195
JPMorgan Chase Bank,Marlboro,Full Service Brick and Mortar Office,290 Avenue X,Brooklyn,NY,11223,40.59028860837332,-73.97229814793121
JPMorgan Chase Bank,Maspeth And 48th St,Full Service Brick and Mortar Office,54-12 48th Street,Maspeth,NY,11378,40.73080967332221,-73.91925091577694
JPMorgan Chase Bank,Maspeth,Full Service Brick and Mortar Office,6955 Grand Avenue,Maspeth,NY,11378,40.7269399550464,-73.89370273994456
JPMorgan Chase Bank,Massapequa,Full Service Brick and Mortar Office,4210 Sunrise Highway,Massapequa,NY,11758,40.67504099999999,-73.47755699999999
JPMorgan Chase Bank,Mastercard Int'l Corp Cashier,Limited Service Mobile Office,2000 Purchase Street,Purchase,NY,10577,41.023539,-73.7138205
JPMorgan Chase Bank,Mattituck,Full Service Brick and Mortar Office,10300 Main Rd,Mattituck,NY,11952,40.98473100000001,-72.537561
JPMorgan Chase Bank,Mcdonald Avenue,Full Service Brick and Mortar Office,4323 18th Avenue,Brooklyn,NY,11218,40.63083600776161,-73.97685361503841
JPMorgan Chase Bank,Mclean Avenue,Full Service Brick and Mortar Office,1044 Mclean Avenue,Yonkers,NY,10704,40.9015739695259,-73.86268072116769
JPMorgan Chase Bank,Medford,Full Service Brick and Mortar Office,2271 Route 112,Medford,NY,11763,40.81455,-73.00004849999999
JPMorgan Chase Bank,Melrose,Full Service Brick and Mortar Office,360 East 149th Street,Bronx,NY,10455,40.81640205216698,-73.91904714876793
JPMorgan Chase Bank,Melville,Full Service Brick and Mortar Office,115 Broad Hollow Road,Melville,NY,11747,40.789457999999996,-73.414755
JPMorgan Chase Bank,Merrick Boulevard And 110th,Full Service Brick and Mortar Office,110-36 Merrick Boulevard,Jamaica,NY,11433,40.69502246710719,-73.78208059631251
JPMorgan Chase Bank,Merrick,Full Service Brick and Mortar Office,2122 Merrick Avenue,Merrick,NY,11566,40.666077,-73.553409
JPMorgan Chase Bank,Merrick Rd And Millang,Full Service Brick and Mortar Office,1696 Merrick Road,Merrick,NY,11566,40.653895739338985,-73.55974206064974
JPMorgan Chase Bank,Metropolitan And 74th St,Full Service Brick and Mortar Office,74-03 Metropolitan Avenue,Middle Village,NY,11379,40.712888126291126,-73.8780681268394
JPMorgan Chase Bank,Metropolitan Ave And Wood,Full Service Brick and Mortar Office,1489 Metropolitan Avenue,Bronx,NY,10462,40.83715513933289,-73.86078209645673
JPMorgan Chase Bank,Metropolitan Avenue,Full Service Brick and Mortar Office,51-15 Metropolitan Avenue,Ridgewood,NY,11385,40.71353284733703,-73.91501331590298
JPMorgan Chase Bank,Metrotech,Full Service Brick and Mortar Office,4 Chase Metrotech Center,Brooklyn,NY,11245,40.69355998889155,-73.98384005107039
JPMorgan Chase Bank,Middletown,Full Service Brick and Mortar Office,135 North Street,Middletown,NY,10940,41.449580999999995,-74.4172245
JPMorgan Chase Bank,Middletown Fairgrounds Plaza,Full Service Brick and Mortar Office,12 Lloyds Ln,Middletown,NY,10940,41.4545822902652,-74.39697013243664
JPMorgan Chase Bank,Midwood,Full Service Brick and Mortar Office,1501 Avenue M,Brooklyn,NY,11230,40.61824200000001,-73.959831
JPMorgan Chase Bank,Mill Basin,Full Service Brick and Mortar Office,6510 Avenue U,Brooklyn,NY,11234,40.61716528031053,-73.91115704134693
JPMorgan Chase Bank,Miller Place,Full Service Brick and Mortar Office,385 Route 25a Suite 5,Miller Place,NY,11764,40.943456999999995,-72.986841
JPMorgan Chase Bank,Millwood,Full Service Brick and Mortar Office,230 Saw Millriver Road,Millwood,NY,10546,41.187708000000015,-73.8021555
JPMorgan Chase Bank,Mineola,Full Service Brick and Mortar Office,32 Jericho Turnpike,Mineola,NY,11501,40.750866229268745,-73.63613953511451
JPMorgan Chase Bank,Mineola Court House,Full Service Brick and Mortar Office,216 Old Country Road,Mineola,NY,11501,40.73903100000001,-73.640016
JPMorgan Chase Bank,Minoa,Full Service Brick and Mortar Office,249 North Main Street,Minoa,NY,13116,43.077878999999996,-76.001229
JPMorgan Chase Bank,Moger Ave,Full Service Brick and Mortar Office,55 East Main Street,Mount Kisco,NY,10549,41.207841,-73.726857
JPMorgan Chase Bank,Mohegan Lake Acme,Full Service Retail Office,"3105 East Main Street, Cortlandt Town Center",Mohegan Lake,NY,10547,41.31072,-73.871253
JPMorgan Chase Bank,Monroe Avenue,Full Service Brick and Mortar Office,560 Monroe Avenue,Rochester,NY,14607,43.14594600000001,-77.592186
JPMorgan Chase Bank,Monroe,Full Service Brick and Mortar Office,"475 Route 17m, K-Mart Plaza",Monroe,NY,10950,41.31822600000001,-74.177109
JPMorgan Chase Bank,Monroe Rt 17m,Full Service Brick and Mortar Office,"845 Rte 17m, Ste 10",Monroe,NY,10950,41.33654100000001,-74.192913
JPMorgan Chase Bank,Monsey,Full Service Brick and Mortar Office,405 West New York Route 59,Monsey,NY,10952,40.86880665223038,-73.42597653069977
JPMorgan Chase Bank,Montauk,Full Service Brick and Mortar Office,731 Montauk Highway,Montauk,NY,11954,41.034456000000006,-71.945307
JPMorgan Chase Bank,Monticello,Full Service Brick and Mortar Office,411 Broadway,Monticello,NY,12701,41.65441445348853,-74.68466402054356
JPMorgan Chase Bank,Morgan Guar. Tr. Co. Of Ny,Limited Service Trust Office,60 Wall Street,New York,NY,10005,40.70594433833456,-74.00862359394658
JPMorgan Chase Bank,Morgan Stanley Corp Cashier,Limited Service Mobile Office,1585 Broadway,New York,NY,10036,40.76021700000001,-73.9853325
JPMorgan Chase Bank,Morris Park,Full Service Brick and Mortar Office,1068 Morris Park Avenue,Bronx,NY,10461,40.84899300000001,-73.853883
JPMorgan Chase Bank,Mosholu,Full Service Brick and Mortar Office,3408 Jerome Avenue,Bronx,NY,10467,40.881060514282495,-73.88311602233257
JPMorgan Chase Bank,Mott Haven,Full Service Brick and Mortar Office,270 East 137th Street,Bronx,NY,10454,40.81020950597262,-73.9278019894684
JPMorgan Chase Bank,Mount Sinai,Full Service Brick and Mortar Office,5499 Nesconset Highway,Mount Sinai,NY,11766,40.930542,-73.0328265
JPMorgan Chase Bank,Mount Vernon,Full Service Brick and Mortar Office,22 West First Street,Mount Vernon,NY,10550,40.911182999999994,-73.8381285
JPMorgan Chase Bank,Mt. Vernon Ave,Full Service Brick and Mortar Office,156 Mt. Vernon Avenue,Mount Vernon,NY,10550,40.91329938397803,-73.84971550601304
JPMorgan Chase Bank,Munsey Park,Full Service Brick and Mortar Office,2111 Northern Boulevard,Manhasset,NY,11030,40.79707922733552,-73.6695165693923
JPMorgan Chase Bank,Murray Hill,Full Service Brick and Mortar Office,450 Third Avenue,New York,NY,10016,40.74402070803271,-73.97940125771817
JPMorgan Chase Bank,Nanuet Driveup,Full Service Brick and Mortar Office,61 Smith Street,Nanuet,NY,10954,41.09315390536093,-73.99961541234315
JPMorgan Chase Bank,Nanuet Middletown,Full Service Brick and Mortar Office,250 South Middletown Road,Nanuet,NY,10954,41.08657357617299,-74.01489028458104
JPMorgan Chase Bank,Nepperhan Avenue,Full Service Brick and Mortar Office,1222 Nepperhan Avenue,Yonkers,NY,10703,40.96498500000001,-73.87240151315731
JPMorgan Chase Bank,Nesconset,Full Service Brick and Mortar Office,705 Smithtown Bypass,Smithtown,NY,11787,40.84711200000001,-73.1698605
JPMorgan Chase Bank,New City,Full Service Brick and Mortar Office,102 South Main Street,New City,NY,10956,41.14380280460501,-73.99003440518803
JPMorgan Chase Bank,New City New Hempstead,Full Service Brick and Mortar Office,2 New Hempstead Road,New City,NY,10956,41.14817049379626,-73.99023997293557
JPMorgan Chase Bank,New City South Main,Full Service Brick and Mortar Office,316 South Main Street,New City,NY,10956,41.13644365445209,-73.99090381398275
JPMorgan Chase Bank,New Dorp,Full Service Brick and Mortar Office,200 New Dorp Lane,Staten Island,NY,10306,40.57268400000001,-74.114406
JPMorgan Chase Bank,New Hyde Park,Full Service Brick and Mortar Office,350 Hillside Avenue,New Hyde Park,NY,11040,40.74099999971153,-73.69716754065443
JPMorgan Chase Bank,New Lots,Full Service Brick and Mortar Office,2100 Linden Boulevard,Brooklyn,NY,11207,40.66075191312255,-73.8850650560621
JPMorgan Chase Bank,New Paltz,Full Service Brick and Mortar Office,2 Plattekill Avenue,New Paltz,NY,12561,41.7479207216227,-74.08495539757065
JPMorgan Chase Bank,New Rochelle,Full Service Brick and Mortar Office,105 Pelham Road,New Rochelle,NY,10805,40.9057725848,-73.77399785166475
JPMorgan Chase Bank,New Rochelle,Full Service Brick and Mortar Office,270 North Avenue,New Rochelle,NY,10801,40.91148000000001,-73.78280099999999
JPMorgan Chase Bank,New Rochelle Shoprite Bkg Ctr,Full Service Brick and Mortar Office,8 Joyce Rd,New Rochelle,NY,10801,40.916448,-73.77891749999999
JPMorgan Chase Bank,New Windsor,Full Service Brick and Mortar Office,353 Windsor Highway,New Windsor,NY,12553,41.46126013070587,-74.05309471784312
JPMorgan Chase Bank,New York Coliseum,Limited Service Mobile Office,10 Columbus Circle,New York,NY,10019,40.76821117819829,-73.98240155233985
JPMorgan Chase Bank,New York Life,Full Service Brick and Mortar Office,386 Park Avenue South,New York,NY,10016,40.742840765479784,-73.98451462559864
JPMorgan Chase Bank,New York North,Full Service Brick and Mortar Office,333 Route 303,Orangeburg,NY,10962,41.04661404662704,-73.94518366524348
JPMorgan Chase Bank,Newburgh,Full Service Brick and Mortar Office,5020 Route 9w,Newburgh,NY,12550,41.52105900000001,-74.020149
JPMorgan Chase Bank,Newkirk Plaza,Full Service Brick and Mortar Office,1509 Foster Avenue,Brooklyn,NY,11230,40.63423405580232,-73.96279697613822
JPMorgan Chase Bank,Ninth Avenue & 55th Street,Full Service Brick and Mortar Office,839 9th Avenue,New York,NY,10019,40.766377462403995,-73.98686893701299
JPMorgan Chase Bank,Ninth Street,Full Service Brick and Mortar Office,444 5th Avenue,Brooklyn,NY,11215,40.66932862920533,-73.98620028157994
JPMorgan Chase Bank,Noho,Full Service Brick and Mortar Office,623 Broadway,New York,NY,10012,40.72593599999999,-73.996533
JPMorgan Chase Bank,North Babylon,Full Service Brick and Mortar Office,35 Woods Road,North Babylon,NY,11703,40.73798624343569,-73.32166597293556
JPMorgan Chase Bank,North Bellmore,Full Service Brick and Mortar Office,1542 Bellmore Avenue,Bellmore,NY,11710,40.68365399999999,-73.539828
JPMorgan Chase Bank,North Broadway,Full Service Brick and Mortar Office,984 North Broadway,Yonkers,NY,10701,40.9684222472735,-73.88485305294637
JPMorgan Chase Bank,North Chelsea,Full Service Brick and Mortar Office,245 7th Ave,New York,NY,10001,40.74495414265112,-73.99498322494092
JPMorgan Chase Bank,North Hartsdale,Full Service Brick and Mortar Office,353 North Central Avenue,Hartsdale,NY,10530,41.02834857066173,-73.79041801474384
JPMorgan Chase Bank,North Main Street,Full Service Brick and Mortar Office,122 North Main Street,Port Chester,NY,10573,41.002523999999994,-73.6621155
JPMorgan Chase Bank,North Massapequa,Full Service Brick and Mortar Office,1090 Hicksville Road,Massapequa,NY,11758,40.696031775751585,-73.48078226086349
JPMorgan Chase Bank,North Patchogue,Full Service Brick and Mortar Office,472 Medford Avenue,Patchogue,NY,11772,40.78446300000002,-73.0091655
JPMorgan Chase Bank,North Shore Towers,Full Service Brick and Mortar Office,27258 Grand Central Parkway,Floral Park,NY,11005,40.759208991040055,-73.71288877072436
JPMorgan Chase Bank,North White Plains,Full Service Brick and Mortar Office,566 North Broadway,White Plains,NY,10603,41.052636273097185,-73.76993078723544
JPMorgan Chase Bank,Northport Main St,Full Service Brick and Mortar Office,54 Main Street,Northport,NY,11768,40.90022100164477,-73.3510346493162
JPMorgan Chase Bank,Northport Village Drive-In,Limited Service Facility Office,163 Main Street,Northport,NY,11768,40.90067589248815,-73.34886567531353
JPMorgan Chase Bank,Nostrand Ave And Ave Y,Full Service Brick and Mortar Office,3804 Nostrand Avenue,Brooklyn,NY,11235,40.591257108517546,-73.9401341528073
JPMorgan Chase Bank,Nostrand,Full Service Brick and Mortar Office,1462 Nostrand Avenue,Brooklyn,NY,11226,40.65048508159734,-73.94957482321533
JPMorgan Chase Bank,Ny Presbyterian,Full Service Brick and Mortar Office,180 Fort Washington Avenue,New York,NY,10032,40.84131776074794,-73.94257960961406
JPMorgan Chase Bank,Nyack North Broadway,Full Service Brick and Mortar Office,20 North Broadway,Nyack,NY,10960,41.09187220705174,-73.91806629990181
JPMorgan Chase Bank,Nyack Rte 59,Full Service Brick and Mortar Office,49 Route 59,Nyack,NY,10960,41.094179184546306,-73.93534940120598
JPMorgan Chase Bank,Oakdale Banking Center,Full Service Brick and Mortar Office,861 Montauk Highway,Oakdale,NY,11769,40.73700600000001,-73.119114
JPMorgan Chase Bank,Oakland Gardens,Full Service Brick and Mortar Office,6103 Springfield Blvd,Oakland Gardens,NY,11364,40.748716759103154,-73.75646782442742
JPMorgan Chase Bank,Oceanside,Full Service Brick and Mortar Office,3285 Long Beach Road,Oceanside,NY,11572,40.63121100000001,-73.6406145
JPMorgan Chase Bank,Old Country Rd And Cherry Ln,Full Service Brick and Mortar Office,400 Old Country Road,Carle Place,NY,11514,40.74528599999999,-73.60497
JPMorgan Chase Bank,Old Country Road,Full Service Brick and Mortar Office,514 Old Country Road,Westbury,NY,11590,40.74962400000001,-73.5776055
JPMorgan Chase Bank,Old Westbury,Full Service Brick and Mortar Office,35 Jericho Turnpike,Jericho,NY,11753,40.7772235599799,-73.56554409436433
JPMorgan Chase Bank,One World Trade Center,Full Service Brick and Mortar Office,185 Greenwich Street,New York,NY,10006,40.711860891194014,-74.01208217288952
JPMorgan Chase Bank,Oneida,Full Service Brick and Mortar Office,150 West Main Street,Oneida,NY,13421,42.9306001517977,-75.38196009158065
JPMorgan Chase Bank,Orange Plaza,Full Service Brick and Mortar Office,440 New York Highway 211 East,Middletown,NY,10940,41.45481000000001,-74.3825385
JPMorgan Chase Bank,Osage,Full Service Brick and Mortar Office,1946 Pleasantville Rd,Briarcliff Manor,NY,10510,41.164802864822065,-73.8473560402504
JPMorgan Chase Bank,Ossining,Full Service Brick and Mortar Office,21 Spring Street,Ossining,NY,10562,41.16053784901037,-73.86360219995396
JPMorgan Chase Bank,Oswego,Full Service Brick and Mortar Office,204 West First Street,Oswego,NY,13126,43.455994502077466,-76.51098029199596
JPMorgan Chase Bank,Ozone Park,Full Service Brick and Mortar Office,96-19 101st Avenue,Ozone Park,NY,11416,40.684747284494144,-73.8444320044434
JPMorgan Chase Bank,Park Avenue And 32nd Street,Full Service Brick and Mortar Office,2 Park Avenue,New York,NY,10016,40.746080691932555,-73.98216407980833
JPMorgan Chase Bank,Park Avenue And 48th St,Full Service Brick and Mortar Office,277 Park Avenue,New York,NY,10172,40.75560748208217,-73.97495015318268
JPMorgan Chase Bank,Park Avenue And 52nd St,Full Service Brick and Mortar Office,360 Park Avenue,New York,NY,10022,40.75874474966809,-73.9729879400714
JPMorgan Chase Bank,Park Avenue And 55th St,Full Service Brick and Mortar Office,410 Park Avenue,New York,NY,10022,40.760289,-73.97223749999999
JPMorgan Chase Bank,Park Avenue,Full Service Brick and Mortar Office,510 Park Avenue,New York,NY,10022,40.763382003058425,-73.96964086317729
JPMorgan Chase Bank,Park Slope,Full Service Brick and Mortar Office,127 Seventh Avenue,Brooklyn,NY,11215,40.67308954065443,-73.97634627823307
JPMorgan Chase Bank,Park Slope West Bnkg Center,Full Service Brick and Mortar Office,159 5th Avenue,Brooklyn,NY,11217,40.677826065497165,-73.97944236718799
JPMorgan Chase Bank,Parkchester,Full Service Brick and Mortar Office,11 Hugh J. Grant Circle,Bronx,NY,10462,40.83370200000002,-73.8614745
JPMorgan Chase Bank,Patchogue,Full Service Brick and Mortar Office,115 East Main Street,Patchogue,NY,11772,40.76577657842334,-73.01241352553522
JPMorgan Chase Bank,Patchogue Waverly,Full Service Brick and Mortar Office,499-84 Sunrise Hwy,Patchogue,NY,11772,40.776207927115664,-73.03653596436588
JPMorgan Chase Bank,Patterson Acme,Limited Service Facility Office,3112 Ny Route 22,Patterson,NY,12563,41.51694357069604,-73.59107390652093
JPMorgan Chase Bank,Pearl River,Full Service Brick and Mortar Office,1 East Central Avenue,Pearl River,NY,10965,41.059091460470746,-74.0213130328928
JPMorgan Chase Bank,Peekskill,Full Service Brick and Mortar Office,1025 Brown Street,Peekskill,NY,10566,41.28991054480938,-73.918818
JPMorgan Chase Bank,Peekskill,Full Service Brick and Mortar Office,1825 East Main Street,Peekskill,NY,10566,41.29597799999999,-73.895958
JPMorgan Chase Bank,Pelham Bay,Full Service Brick and Mortar Office,3217 Westchester Avenue,Bronx,NY,10461,40.851980999999995,-73.8295515
JPMorgan Chase Bank,Pelham,Full Service Brick and Mortar Office,35 Fifth Avenue,Pelham,NY,10803,40.91183100000001,-73.809693
JPMorgan Chase Bank,Pelham Manor,Full Service Brick and Mortar Office,854 Pelham Parkway,Pelham,NY,10803,40.893237,-73.8204975
JPMorgan Chase Bank,Pelham Parkway,Full Service Brick and Mortar Office,2126 White Plains Road,Bronx,NY,10462,40.854083364418045,-73.86767759143643
JPMorgan Chase Bank,Penfield,Full Service Brick and Mortar Office,2159 Fairport 9 Mile Point Road,Fairport,NY,14450,43.1293725,-77.44134929569857
JPMorgan Chase Bank,Penn Station - Ctcc,Limited Service Mobile Office,"132 West 31st Street, Greenly Buildi",New York,NY,10001,40.74838199999999,-73.99061999999999
JPMorgan Chase Bank,Perinton Plaza,Full Service Brick and Mortar Office,609 Moseley Road,Fairport,NY,14450,43.06983415237462,-77.44238047215616
JPMorgan Chase Bank,Perry & Hull,Full Service Brick and Mortar Office,311 E 204th Street,Bronx,NY,10467,40.87271895865309,-73.87828607631721
JPMorgan Chase Bank,Peter Cooper,Full Service Brick and Mortar Office,333 E 23rd St,New York,NY,10010,40.737209447140536,-73.97920256826713
JPMorgan Chase Bank,Pine Bush,Full Service Brick and Mortar Office,75 Main Street,Pine Bush,NY,12566,41.609531568671166,-74.30114364100632
JPMorgan Chase Bank,Pittsford Village,Full Service Brick and Mortar Office,31 State Street,Pittsford,NY,14534,43.089912,-77.5132515
JPMorgan Chase Bank,Plainview,Full Service Brick and Mortar Office,1064 Old Country Road,Plainview,NY,11803,40.776149093831016,-73.47116366778229
JPMorgan Chase Bank,Plainview,Full Service Brick and Mortar Office,445 South Oyster Bay Road,Plainview,NY,11803,40.781105999999994,-73.501533
JPMorgan Chase Bank,Pleasant Valley,Full Service Brick and Mortar Office,"1600 Main Street, Suite 14",Pleasant Valley,NY,12569,41.74405200000001,-73.824201
JPMorgan Chase Bank,Pleasantville,Full Service Brick and Mortar Office,444 Bedford Road,Pleasantville,NY,10570,41.133645,-73.7910315
JPMorgan Chase Bank,Pleasantville,Full Service Brick and Mortar Office,17 Washington Avenue,Pleasantville,NY,10570,41.1357517857349,-73.79178121008151
JPMorgan Chase Bank,Pomona - Grand Union,Limited Service Retail Office,"Pacesetter Shopping Center, 466 Route",Pomona,NY,10970,41.18338000000006,-74.05649999999997
JPMorgan Chase Bank,Pomona,Full Service Retail Office,"1581 Route 202, Ste 2",Pomona,NY,10970,41.18343754362688,-74.04749009319677
JPMorgan Chase Bank,Port Authority Banking Center,Full Service Brick and Mortar Office,615 8th Avenue,New York,NY,10018,40.75578361394188,-73.99087392160531
JPMorgan Chase Bank,Port Chester Midland,Full Service Brick and Mortar Office,112 Midland Avenue,Port Chester,NY,10573,40.99295538470179,-73.6685670882911
JPMorgan Chase Bank,Port Jefferson Village,Full Service Brick and Mortar Office,120 Main St,Port Jefferson,NY,11777,40.94596582125344,-73.0687305745282
JPMorgan Chase Bank,Port Jervis,Full Service Brick and Mortar Office,14 Sussex Street,Port Jervis,NY,12771,41.374376024438696,-74.69257177214489
JPMorgan Chase Bank,Port Washington,Full Service Brick and Mortar Office,115 Main Street,Port Washington,NY,11050,40.8304375112814,-73.69062745268046
JPMorgan Chase Bank,Port Washington,Full Service Brick and Mortar Office,805 Port Washington Boulevard,Port Washington,NY,11050,40.827563999999995,-73.683081
JPMorgan Chase Bank,Poughkeepsie Plaza Mall,Full Service Brick and Mortar Office,2586 South Road,Poughkeepsie,NY,12601,41.66561142630852,-73.92968482705315
JPMorgan Chase Bank,Prudential Securities,Limited Service Mobile Office,1 New York Plaza,New York,NY,10004,40.70235600000001,-74.01216149999999
JPMorgan Chase Bank,Quaker Ridge,Full Service Brick and Mortar Office,45 Quaker Ridge Road,New Rochelle,NY,10804,40.94793584192693,-73.79480353086832
JPMorgan Chase Bank,Queens Blvd And 63rd Ave,Full Service Brick and Mortar Office,95-38 Queens Boulevard,Rego Park,NY,11374,40.73026141742172,-73.86334673550115
JPMorgan Chase Bank,Queens Blvd And 64th Ave,Full Service Brick and Mortar Office,97-41 Queens Boulevard,Rego Park,NY,11374,40.72939406356393,-73.85966037676728
JPMorgan Chase Bank,Queens Plaza Banking Center,Full Service Brick and Mortar Office,25-15 Queens Plaza North,Long Island City,NY,11101,40.7509674497694,-73.94006801812245
JPMorgan Chase Bank,Queens Village Banking Center,Full Service Brick and Mortar Office,219-01 Jamaica Avenue,Queens Village,NY,11428,40.71838500000001,-73.73602799999999
JPMorgan Chase Bank,Radio City,Full Service Brick and Mortar Office,51 West 51st Street,New York,NY,10019,40.760067184574964,-73.9788199263085
JPMorgan Chase Bank,Ralph Ave And Ave N,Full Service Brick and Mortar Office,2401 Ralph Avenue,Brooklyn,NY,11234,40.6192902850424,-73.91721363362007
JPMorgan Chase Bank,Ralph Avenue And Ave K,Full Service Brick and Mortar Office,2110 Ralph Avenue,Brooklyn,NY,11234,40.62601458451152,-73.91798942244203
JPMorgan Chase Bank,Restoration Plaza,Full Service Brick and Mortar Office,1380 Fulton Street,Brooklyn,NY,11216,40.680088932081,-73.94548924215107
JPMorgan Chase Bank,Richmond Avenue,Full Service Brick and Mortar Office,2845 Richmond Avenue,Staten Island,NY,10314,40.57588799999999,-74.1680235
JPMorgan Chase Bank,Richmond Hill North Bkg. Ctr.,Full Service Brick and Mortar Office,114-20 Jamaica Avenue,Richmond Hill,NY,11418,40.698515043568634,-73.83428053926946
JPMorgan Chase Bank,Richmond Hill South,Full Service Brick and Mortar Office,11118 Liberty Avenue,South Richmond Hill,NY,11419,40.684815000000015,-73.83033449999999
JPMorgan Chase Bank,Ridgewood,Full Service Brick and Mortar Office,60-67 Myrtle Avenue,Ridgewood,NY,11385,40.70070956509313,-73.89587845628715
JPMorgan Chase Bank,Riverdale,Full Service Brick and Mortar Office,3775 Riverdale Avenue,Bronx,NY,10463,40.888071,-73.90789649999999
JPMorgan Chase Bank,Riverdale North,Full Service Brick and Mortar Office,5656 Riverdale Avenue,Bronx,NY,10471,40.905891,-73.9041615
JPMorgan Chase Bank,Riverhead,Full Service Brick and Mortar Office,7 West Main Street,Riverhead,NY,11901,40.916901133764306,-72.66277511878931
JPMorgan Chase Bank,Riverhead,Full Service Brick and Mortar Office,"655 Old Country Road, Route 58",Riverhead,NY,11901,40.93481442542041,-72.6653416761985
JPMorgan Chase Bank,Riverhead Shopping Center,Full Service Brick and Mortar Office,1450 Old Country Road,Riverhead,NY,11901,40.92631971594878,-72.69167758377213
JPMorgan Chase Bank,Rochdale Village Mall,Full Service Brick and Mortar Office,165-40 Baisley Boulevard,Jamaica,NY,11434,40.679271908044925,-73.77801354948392
JPMorgan Chase Bank,Rochester Medical Center,Full Service Brick and Mortar Office,260 Crittenden Boulevard,Rochester,NY,14642,43.12158513382162,-77.62608411740433
JPMorgan Chase Bank,Rochester Small Bus Lending,Limited Service Administrative Office,2300 Buffalo Road,Rochester,NY,14624,43.147467000000006,-77.7131955
JPMorgan Chase Bank,Rockaway Park,Full Service Brick and Mortar Office,257 Beach 116th St,Rockaway Park,NY,11694,40.580807354146266,-73.83790192798196
JPMorgan Chase Bank,Rockville Centre,Full Service Brick and Mortar Office,10 North Village Avenue,Rockville Centre,NY,11570,40.65698092339432,-73.64770262672383
JPMorgan Chase Bank,Rocky Point,Full Service Brick and Mortar Office,346-20 New York Route 25a,Rocky Point,NY,11778,40.94501007584667,-72.95992222009968
JPMorgan Chase Bank,Ronkonkoma,Full Service Brick and Mortar Office,130 Portion Road,Ronkonkoma,NY,11779,40.8265152980555,-73.1089518208494
JPMorgan Chase Bank,Roosevelt And 75th St,Full Service Brick and Mortar Office,37-67 75th Street,Jackson Heights,NY,11372,40.747213906745905,-73.89051159158066
JPMorgan Chase Bank,Rosedale,Full Service Brick and Mortar Office,1214 Mamaroneck Avenue,White Plains,NY,10605,40.99218785123205,-73.7462147616133
JPMorgan Chase Bank,Route 17k,Full Service Brick and Mortar Office,201 Auto Park Place,Newburgh,NY,12550,41.50324558924339,-74.06100297310846
JPMorgan Chase Bank,Route 59,Full Service Brick and Mortar Office,123 East Route 59,Nanuet,NY,10954,41.09471166192526,-74.00568106898828
JPMorgan Chase Bank,Rye,Full Service Brick and Mortar Office,73 Purchase Street,Rye,NY,10580,40.98425399999999,-73.685169
JPMorgan Chase Bank,Rye Ridge,Full Service Brick and Mortar Office,150 South Ridge Street,Port Chester,NY,10573,41.00195670109682,-73.6810165420143
JPMorgan Chase Bank,Sag Harbor,Full Service Brick and Mortar Office,89 Main St,Sag Harbor,NY,11963,41.000157,-72.294984
JPMorgan Chase Bank,Saw Mill River Road,Full Service Brick and Mortar Office,270 Saw Mill River Road,Yonkers,NY,10701,40.94624610991845,-73.87754682160005
JPMorgan Chase Bank,Sayville,Full Service Brick and Mortar Office,131 Main Street,Sayville,NY,11782,40.7350728212821,-73.08419893909046
JPMorgan Chase Bank,Scarsdale,Full Service Brick and Mortar Office,8 East Parkway,Scarsdale,NY,10583,40.98911579211152,-73.80809886009021
JPMorgan Chase Bank,Scarsdale Central Park,Full Service Brick and Mortar Office,"660 Central Park Avenue, #662",Scarsdale,NY,10583,40.999945203416424,-73.81530536257169
JPMorgan Chase Bank,Scottsville,Full Service Brick and Mortar Office,1 Rochester Street,Scottsville,NY,14546,43.020293489872465,-77.748388263835
JPMorgan Chase Bank,Seaford,Full Service Brick and Mortar Office,3875 Merrick Road,Seaford,NY,11783,40.66618500000001,-73.4878665
JPMorgan Chase Bank,Second Ave And 106th St,Full Service Brick and Mortar Office,2065 2nd Avenue,New York,NY,10029,40.79083775411148,-73.94231209466773
JPMorgan Chase Bank,Second Ave And 28th St,Full Service Brick and Mortar Office,501 Second Avenue,New York,NY,10016,40.74120400167343,-73.97854047988912
JPMorgan Chase Bank,Second Ave E And 53rd St,Full Service Brick and Mortar Office,993 Second Ave,New York,NY,10022,40.75655076187312,-73.9673489222978
JPMorgan Chase Bank,Second Avenue & 86th Street,Full Service Brick and Mortar Office,244 East 86th Street,New York,NY,10028,40.777848000000006,-73.952082
JPMorgan Chase Bank,Second Avenue & 93rd St Bnkg,Full Service Brick and Mortar Office,1801 Second Avenue,New York,NY,10128,40.78247400000001,-73.9486215
JPMorgan Chase Bank,Second Avenue And 43rd Street,Full Service Brick and Mortar Office,801 2nd Avenue,New York,NY,10017,40.75029000000001,-73.9720935
JPMorgan Chase Bank,Second Avenue And 62nd St,Full Service Brick and Mortar Office,1180 2nd Avenue,New York,NY,10065,40.76280002164008,-73.96270511267248
JPMorgan Chase Bank,Selden,Full Service Brick and Mortar Office,"295 Middle Country Road, #115",Selden,NY,11784,40.86774693151643,-73.0270147598694
JPMorgan Chase Bank,Selden,Full Service Brick and Mortar Office,999 Middle Country Road,Selden,NY,11784,40.863746657042405,-73.0489034268281
JPMorgan Chase Bank,Select Direct I,Full Service Brick and Mortar Office,"1 Chase Manhattan Plaza, 33rd Floor",New York,NY,10005,40.70784599999999,-74.00898
JPMorgan Chase Bank,Select Direct Ii,Full Service Brick and Mortar Office,"1 Chase Manhattan Plaza, 33rd Floor",New York,NY,10005,40.70784599999999,-74.00898
JPMorgan Chase Bank,Setauket,Full Service Brick and Mortar Office,1395 Route 25a,East Setauket,NY,11733,40.93586100000002,-73.109835
JPMorgan Chase Bank,Seventh Ave. And 53rd Street Bkg. Ct,Full Service Brick and Mortar Office,810 7th Avenue,New York,NY,10019,40.76283599999999,-73.982277
JPMorgan Chase Bank,Seventh North,Full Service Brick and Mortar Office,424 7th North Street,Liverpool,NY,13088,43.09215928872154,-76.17110749212732
JPMorgan Chase Bank,Seventh Street,Full Service Brick and Mortar Office,82 Seventh Street,Garden City,NY,11530,40.72448926475865,-73.63756429141904
JPMorgan Chase Bank,Sheepshead Bay,Full Service Brick and Mortar Office,2623 East 17th Street,Brooklyn,NY,11235,40.587444000000005,-73.952127
JPMorgan Chase Bank,Shelter Island,Full Service Brick and Mortar Office,48 North Ferry Road,Shelter Island,NY,11964,41.070492,-72.3388365
JPMorgan Chase Bank,Sheridan Square,Full Service Brick and Mortar Office,204 West Fourth Street,New York,NY,10014,40.73316299999999,-74.002545
JPMorgan Chase Bank,Shirley South Port Center,Full Service Brick and Mortar Office,645 William Floyd Pkwy,Shirley,NY,11967,40.802535000000006,-72.8680455
JPMorgan Chase Bank,Shrub Oak,Full Service Brick and Mortar Office,1336 East Main Street,Shrub Oak,NY,10588,41.32683055287,-73.83585880419827
JPMorgan Chase Bank,Silver Lake,Full Service Brick and Mortar Office,107 Lake Street,West Harrison,NY,10604,41.0434120485603,-73.74701354856029
JPMorgan Chase Bank,Sixteenth Ave & 48th St,Full Service Brick and Mortar Office,4721 16th Ave,Brooklyn,NY,11204,40.63176005300368,-73.9847132031566
JPMorgan Chase Bank,Sixth Ave & West 28th St Bnkg,Full Service Brick and Mortar Office,611 6th Avenue,New York,NY,10011,40.739798298490186,-73.99514574225901
JPMorgan Chase Bank,Sixth Avenue And 23rd St,Full Service Brick and Mortar Office,71 West 23rd Street,New York,NY,10010,40.74275556370816,-73.99238378559066
JPMorgan Chase Bank,Sixth Avenue And 43rd Street,Full Service Brick and Mortar Office,1120 Avenue Of The Americas,New York,NY,10036,40.755753,-73.9832175
JPMorgan Chase Bank,Smith Haven,Full Service Brick and Mortar Office,2001 Nesconset-Port Jefferson Hwy.,Lake Grove,NY,11755,40.86885367678234,-73.13133144450556
JPMorgan Chase Bank,Smithtown,Full Service Brick and Mortar Office,42 West Main Street,Smithtown,NY,11787,40.854483000000016,-73.19565899999999
JPMorgan Chase Bank,So Brooklyn - Smith Street,Full Service Brick and Mortar Office,192 Smith Street #194,Brooklyn,NY,11201,40.685118139332886,-73.99159725382303
JPMorgan Chase Bank,Soho,Full Service Brick and Mortar Office,525 Broadway,New York,NY,10012,40.72297499999999,-73.9990395
JPMorgan Chase Bank,Somerstown Center,Full Service Brick and Mortar Office,265 Us 202,Somers,NY,10589,41.32829699999999,-73.6865325
JPMorgan Chase Bank,South Broadway And 4th St,Full Service Brick and Mortar Office,285 S Broadway,Hicksville,NY,11801,40.76252099999999,-73.516239
JPMorgan Chase Bank,South Broadway Yonkers,Full Service Brick and Mortar Office,410 South Broadway,Yonkers,NY,10705,40.91937860044091,-73.89626666364819
JPMorgan Chase Bank,South Flushing,Full Service Brick and Mortar Office,5727 Main Street,Flushing,NY,11355,40.745666891482465,-73.82599855493693
JPMorgan Chase Bank,South Freeport,Full Service Brick and Mortar Office,180 Atlantic Avenue,Freeport,NY,11520,40.64582749099763,-73.58380924493622
JPMorgan Chase Bank,South Huntington,Full Service Brick and Mortar Office,55 W Jericho Tpke,Huntington Station,NY,11746,40.82845518379553,-73.41224845836462
JPMorgan Chase Bank,South Valley Stream,Full Service Brick and Mortar Office,930 Rosedale Road,Valley Stream,NY,11581,40.65327697642668,-73.7242918591379
JPMorgan Chase Bank,Southampton Drive-In,Limited Service Facility Office,66 Nugent Street,Southampton,NY,11968,40.88596935012523,-72.39183072581746
JPMorgan Chase Bank,Southampton Driveup,Full Service Brick and Mortar Office,60 Main St,Southampton,NY,11968,40.88580300000001,-72.3890475
JPMorgan Chase Bank,Southern Blvd,Full Service Brick and Mortar Office,1051 Westchester Avenue,Bronx,NY,10459,40.82456446378897,-73.89223995198796
JPMorgan Chase Bank,St Albans & Linden Blvd Bnkg,Full Service Brick and Mortar Office,20532 Linden Boulevard,Saint Albans,NY,11412,40.69604969357732,-73.74638103344108
JPMorgan Chase Bank,Stadium,Full Service Brick and Mortar Office,75 East 161 Street,Bronx,NY,10451,40.82776023925207,-73.92507313113856
JPMorgan Chase Bank,Stapleton,Full Service Brick and Mortar Office,621 Bay Street,Staten Island,NY,10304,40.62688864224707,-74.07575795752788
JPMorgan Chase Bank,Staten Island Mall,Full Service Brick and Mortar Office,2655 Richmond Avenue,Staten Island,NY,10314,40.58180999999999,-74.166453
JPMorgan Chase Bank,Steinway And Broadway,Full Service Brick and Mortar Office,38-18 Broadway,Astoria,NY,11103,40.759047105459125,-73.91921734194122
JPMorgan Chase Bank,Stewart Manor,Full Service Brick and Mortar Office,110 Covert Avenue,Garden City,NY,11530,40.71997688980902,-73.68871950164478
JPMorgan Chase Bank,Stony Brook,Full Service Brick and Mortar Office,2210 Nesconset Highway,Stony Brook,NY,11790,40.874634000000015,-73.124541
JPMorgan Chase Bank,Stony Point,Full Service Brick and Mortar Office,22 South Liberty Drive,Stony Point,NY,10980,41.22628646130746,-73.98685428279204
JPMorgan Chase Bank,Strivers Gardens Banking Center Bran,Full Service Brick and Mortar Office,300 West 135th Street,New York,NY,10030,40.81670951927416,-73.94709652859365
JPMorgan Chase Bank,Stuyvesant Town,Full Service Brick and Mortar Office,255-257 First Avenue,New York,NY,10003,40.732001999999994,-73.982322
JPMorgan Chase Bank,Suffern,Full Service Brick and Mortar Office,67 Lafayette Street,Suffern,NY,10901,41.115479490968966,-74.15156761754857
JPMorgan Chase Bank,Sunnyside,Full Service Brick and Mortar Office,4610 Queens Blvd.,Sunnyside,NY,11104,40.742940510675815,-73.91836210644007
JPMorgan Chase Bank,Sunnyside North,Full Service Brick and Mortar Office,47-11 Queens Boulevard,Sunnyside,NY,11104,40.74318948127411,-73.91721647155057
JPMorgan Chase Bank,Sunrise Mall,Full Service Brick and Mortar Office,6 Carmans Rd,Massapequa,NY,11758,40.68078709466775,-73.43177214755585
JPMorgan Chase Bank,Sunset Park Banking Center,Full Service Brick and Mortar Office,5423 8th Avenue,Brooklyn,NY,11220,40.63821300000001,-74.0062035
JPMorgan Chase Bank,Sutphin Boulevard,Full Service Brick and Mortar Office,9059 Sutphin Boulevard,Jamaica,NY,11435,40.701402,-73.8078815076174
JPMorgan Chase Bank,Sutton Place,Full Service Brick and Mortar Office,994 First Avenue,New York,NY,10022,40.756751267268804,-73.9640167919673
JPMorgan Chase Bank,Syosset,Full Service Brick and Mortar Office,550 Jericho Turnpike,Syosset,NY,11791,40.81057200000001,-73.4963805
JPMorgan Chase Bank,Syosset,Full Service Brick and Mortar Office,220 West Jericho Turnpike,Syosset,NY,11791,40.80612966368702,-73.52075104392965
JPMorgan Chase Bank,Tallman,Full Service Brick and Mortar Office,1 South Airmont Road,Suffern,NY,10901,41.11153430420098,-74.11439752790022
JPMorgan Chase Bank,Tarrytown,Full Service Brick and Mortar Office,64 North Broadway,Tarrytown,NY,10591,41.07840300000001,-73.857402
JPMorgan Chase Bank,Tarrytown Station Bkg. Ctr.,Full Service Brick and Mortar Office,139 Wildey Street,Tarrytown,NY,10591,41.08002741292502,-73.86395912972121
JPMorgan Chase Bank,Third Avenue & 41st Street,Full Service Brick and Mortar Office,633 Third Avenue,New York,NY,10017,40.749776999999995,-73.974897
JPMorgan Chase Bank,Third Avenue & 51st Street,Full Service Brick and Mortar Office,850 Third Avenue,New York,NY,10022,40.756698,-73.97035199999999
JPMorgan Chase Bank,Third Avenue And 106th St,Full Service Brick and Mortar Office,1924 Third Avenue,New York,NY,10029,40.791690565093155,-73.944613864014
JPMorgan Chase Bank,Third Avenue And 56th Street,Full Service Brick and Mortar Office,919 Third Avenue,New York,NY,10022,40.75942416290622,-73.96809896306782
JPMorgan Chase Bank,Third Avenue And 65th Street,Full Service Brick and Mortar Office,1100 Third Avenue,New York,NY,10065,40.764958071065756,-73.96409936637993
JPMorgan Chase Bank,Third Avenue And 79th Street,Full Service Brick and Mortar Office,201 East 79th Street,New York,NY,10075,40.77431100000001,-73.95695549999999
JPMorgan Chase Bank,Thirteenth Ave And 48th St,Full Service Brick and Mortar Office,4724 13th Avenue (48th Street),Brooklyn,NY,11219,40.63571329392921,-73.99144990106176
JPMorgan Chase Bank,Thornwood,Full Service Brick and Mortar Office,608 Columbus Avenue,Thornwood,NY,10594,41.114215414651774,-73.77161447723473
JPMorgan Chase Bank,Throggs Neck,Full Service Brick and Mortar Office,3528 East Tremont Avenue,Bronx,NY,10465,40.83068309351389,-73.8262373766517
JPMorgan Chase Bank,Thruway,Full Service Brick and Mortar Office,360 South Broadway,Tarrytown,NY,10591,41.06434385789717,-73.86235633969086
JPMorgan Chase Bank,Times Square,Full Service Brick and Mortar Office,3 Times Square,New York,NY,10036,40.756698,-73.9867005
JPMorgan Chase Bank,Tottenville,Full Service Brick and Mortar Office,280 Page Avenue,Staten Island,NY,10307,40.51726323783844,-74.23415486430245
JPMorgan Chase Bank,Tower,Full Service Brick and Mortar Office,1 S Clinton Ave,Rochester,NY,14604,43.155690046886846,-77.60582967170609
JPMorgan Chase Bank,Tremont,Full Service Brick and Mortar Office,601 East Tremont Avenue,Bronx,NY,10457,40.84649999999999,-73.89296999999999
JPMorgan Chase Bank,Tribeca Banking Center,Full Service Brick and Mortar Office,65 Worth Street,New York,NY,10013,40.71701319623172,-74.00605009686078
JPMorgan Chase Bank,Tuckahoe Main St,Full Service Brick and Mortar Office,62 Main St,Tuckahoe,NY,10707,40.95021940631322,-73.8270063275145
JPMorgan Chase Bank,Tuxedo,Full Service Brick and Mortar Office,241 New York Route 17,Tuxedo Park,NY,10987,41.24162728026622,-74.17660033091046
JPMorgan Chase Bank,Tysens Lane,Full Service Brick and Mortar Office,2754 Hylan Boulevard,Staten Island,NY,10306,40.56550738660636,-74.11463018399803
JPMorgan Chase Bank,U Of R River Campus,Full Service Brick and Mortar Office,500 Joseph C Wilson Boulevard,Rochester,NY,14627,43.129808999999995,-77.6266965
JPMorgan Chase Bank,Union & Utopia,Full Service Brick and Mortar Office,176-70 Union Turnpike,Fresh Meadows,NY,11366,40.725838629014895,-73.79111561704205
JPMorgan Chase Bank,Union Square,Full Service Brick and Mortar Office,230 Park Avenue South,New York,NY,10003,40.73787899999999,-73.988748
JPMorgan Chase Bank,University,Full Service Brick and Mortar Office,649 South Crouse Avenue,Syracuse,NY,13210,43.042978844018705,-76.13658905978436
JPMorgan Chase Bank,University Heights,Full Service Brick and Mortar Office,1755 University Avenue,Bronx,NY,10453,40.85005469071375,-73.91632242302437
JPMorgan Chase Bank,University Place,Full Service Brick and Mortar Office,32 University Place,New York,NY,10003,40.7320481729182,-73.9944436058918
JPMorgan Chase Bank,Upper Broadway,Full Service Brick and Mortar Office,2438 Broadway (90th Street),New York,NY,10024,40.79057922869184,-73.97460488314393
JPMorgan Chase Bank,Utica Avenue,Full Service Brick and Mortar Office,257 Utica Avenue,Brooklyn,NY,11213,40.66982999999999,-73.9307295
JPMorgan Chase Bank,Utica-Middle Market Reg Hq,Limited Service Administrative Office,258 Genesse Street,Utica,NY,13502,43.099520017225345,-75.23513411047944
JPMorgan Chase Bank,Valley Cottage,Full Service Brick and Mortar Office,124 Route 303,Valley Cottage,NY,10989,41.11760770459483,-73.9414954650145
JPMorgan Chase Bank,Valley Stream,Full Service Brick and Mortar Office,163 West Merrick Road,Valley Stream,NY,11580,40.666527,-73.703439
JPMorgan Chase Bank,Van Wyck,Full Service Brick and Mortar Office,138-02 Queens Boulevard,Jamaica,NY,11435,40.70845310822907,-73.8184095878584
JPMorgan Chase Bank,Vernon Hills Scarsdale,Full Service Brick and Mortar Office,676 White Plains Road,Scarsdale,NY,10583,40.97029625272294,-73.80648717074571
JPMorgan Chase Bank,Vyse Avenue,Full Service Brick and Mortar Office,74 Horizon Plaza,Bronx,NY,10460,40.83769800000002,-73.8829215
JPMorgan Chase Bank,Wakefield,Full Service Brick and Mortar Office,725 East 233rd Street,Bronx,NY,10466,40.893091343614685,-73.85629548750651
JPMorgan Chase Bank,Wall Street And Williams,Full Service Retail Office,45 Wall Street,New York,NY,10005,40.70650379571821,-74.00974337039064
JPMorgan Chase Bank,Wallabout Street Brooklyn,Full Service Brick and Mortar Office,210 Wallabout Street,Brooklyn,NY,11206,40.69999215430786,-73.95453522300768
JPMorgan Chase Bank,Walt Whitman,Limited Service Facility Office,150 Walt Whitman Road,Huntington Station,NY,11746,40.82457600000001,-73.4117895
JPMorgan Chase Bank,Wantagh,Full Service Brick and Mortar Office,1201 Wantagh Avenue,Wantagh,NY,11793,40.69334700000002,-73.5072435
JPMorgan Chase Bank,Wappinger,Full Service Brick and Mortar Office,1460 Rte 9,Wappingers Falls,NY,12590,41.58852300000001,-73.90706399999999
JPMorgan Chase Bank,Warwick Fairgrounds Banking Center B,Full Service Brick and Mortar Office,146 New York Route 94 South,Warwick,NY,10990,41.23935900000001,-74.3798565
JPMorgan Chase Bank,Washington Hieghts,Full Service Brick and Mortar Office,659 West 181 Street,New York,NY,10033,40.850104462403976,-73.93549947945644
JPMorgan Chase Bank,Washingtonville,Full Service Brick and Mortar Office,74 East Main Street,Washingtonville,NY,10992,41.42715551292617,-74.15948779655494
JPMorgan Chase Bank,Water Street & Maiden Lane Banking C,Full Service Brick and Mortar Office,155 Water Street,New York,NY,10038,40.706118000000004,-74.005758
JPMorgan Chase Bank,Water Street,Full Service Brick and Mortar Office,55 Water Street,New York,NY,10041,40.70348350484743,-74.00982521994926
JPMorgan Chase Bank,Webster,Full Service Brick and Mortar Office,920 Holt Road,Webster,NY,14580,43.21152000000001,-77.44662148450635
JPMorgan Chase Bank,West 125th Street,Full Service Brick and Mortar Office,55 West 125th Street,New York,NY,10027,40.80730177214488,-73.94425310046745
JPMorgan Chase Bank,West 14th Street,Full Service Brick and Mortar Office,69 5th Avenue,New York,NY,10003,40.73631025561203,-73.99336386412956
JPMorgan Chase Bank,West 207th,Full Service Brick and Mortar Office,570 West 207th Street,New York,NY,10034,40.866517027468454,-73.9204814587973
JPMorgan Chase Bank,West 86th Street,Full Service Brick and Mortar Office,59 West 86th Street,New York,NY,10024,40.786357807403625,-73.97178369219233
JPMorgan Chase Bank,West Babylon,Full Service Brick and Mortar Office,595 Sunrise Highway,West Babylon,NY,11704,40.71365486430247,-73.3494208148768
JPMorgan Chase Bank,West Babylon,Full Service Brick and Mortar Office,523 West Montauk Highway,West Babylon,NY,11704,40.68864113544986,-73.33958268370651
JPMorgan Chase Bank,West Bay Shore,Full Service Brick and Mortar Office,840 Sunrise Highway,Bay Shore,NY,11706,40.72831200000002,-73.279359
JPMorgan Chase Bank,West End,Full Service Brick and Mortar Office,36 Genesee Street,Rochester,NY,14611,43.149591000000015,-77.63605054645416
JPMorgan Chase Bank,West Flushing,Full Service Brick and Mortar Office,35-36 154th St,Flushing,NY,11354,40.76495779961336,-73.81099146101901
JPMorgan Chase Bank,West Harlem,Full Service Brick and Mortar Office,350 West 125th Street,New York,NY,10027,40.81066200000001,-73.952991
JPMorgan Chase Bank,West Islip,Full Service Brick and Mortar Office,251 Higbie Lane,West Islip,NY,11795,40.70903636747646,-73.30635451246482
JPMorgan Chase Bank,West New Brighton,Full Service Brick and Mortar Office,666 Forest Avenue,Staten Island,NY,10310,40.629624255612036,-74.11141827254892
JPMorgan Chase Bank,West Nyack Village Square,Full Service Brick and Mortar Office,719 W Nyack Rd,West Nyack,NY,10994,41.09396855006086,-73.97159035928213
JPMorgan Chase Bank,West Point,Full Service Brick and Mortar Office,271 Main Street,Highland Falls,NY,10928,41.3697814138437,-73.965748922038
JPMorgan Chase Bank,Westbury Post And Maple,Full Service Brick and Mortar Office,201 Post Avenue,Westbury,NY,11590,40.755915000000016,-73.58805
JPMorgan Chase Bank,Westchester Square,Full Service Brick and Mortar Office,2725 East Tremont Avenue,Bronx,NY,10461,40.84262100000001,-73.844856
JPMorgan Chase Bank,Westgate Rochester,Full Service Brick and Mortar Office,2130 Chili Avenue,Rochester,NY,14624,43.131519,-77.689737
